{
	"type" : "FeatureCollection",
	"name" : "Stacje",
	"features" : [
		{
			"type" : "Feature",
			"geometry" : {
				"type" : "Point",
				"coordinates" : [ 18.59194, 50.22417 ]
			},
			"properties" : {
				"LP." : 588,
				"ID" : 250180690,
				"Nazwa" : "PILCHOWICE",
				"Województwo" : "śląskie",
				"Powiat" : "powiat gliwicki"
			}
		},
		{
			"type" : "Feature",
			"geometry" : {
				"type" : "Point",
				"coordinates" : [ 20.27333, 49.7275 ]
			},
			"properties" : {
				"LP." : 589,
				"ID" : 249201030,
				"Nazwa" : "DOBRA",
				"Województwo" : "małopolskie",
				"Powiat" : "powiat limanowski"
			}
		},
		{
			"type" : "Feature",
			"geometry" : {
				"type" : "Point",
				"coordinates" : [ 19.76944, 50.17917 ]
			},
			"properties" : {
				"LP." : 590,
				"ID" : 250190780,
				"Nazwa" : "BĘDKOWICE",
				"Województwo" : "małopolskie",
				"Powiat" : "powiat krakowski"
			}
		},
		{
			"type" : "Feature",
			"geometry" : {
				"type" : "Point",
				"coordinates" : [ 21.9125, 49.42222 ]
			},
			"properties" : {
				"LP." : 591,
				"ID" : 249210350,
				"Nazwa" : "MOSZCZANIEC",
				"Województwo" : "podkarpackie",
				"Powiat" : "powiat krośnieński"
			}
		},
		{
			"type" : "Feature",
			"geometry" : {
				"type" : "Point",
				"coordinates" : [ 22.55222, 49.21583 ]
			},
			"properties" : {
				"LP." : 592,
				"ID" : 249220370,
				"Nazwa" : "ZATWARNICA",
				"Województwo" : "podkarpackie",
				"Powiat" : "powiat bieszczadzki"
			}
		},
		{
			"type" : "Feature",
			"geometry" : {
				"type" : "Point",
				"coordinates" : [ 16.4475, 50.67667 ]
			},
			"properties" : {
				"LP." : 593,
				"ID" : 250161030,
				"Nazwa" : "RZECZKA",
				"Województwo" : "dolnośląskie",
				"Powiat" : "powiat wałbrzyski"
			}
		},
		{
			"type" : "Feature",
			"geometry" : {
				"type" : "Point",
				"coordinates" : [ 21.4675, 51.27833 ]
			},
			"properties" : {
				"LP." : 594,
				"ID" : 251210320,
				"Nazwa" : "KAZANÓW",
				"Województwo" : "mazowieckie",
				"Powiat" : "powiat zwoleński"
			}
		},
		{
			"type" : "Feature",
			"geometry" : {
				"type" : "Point",
				"coordinates" : [ 18.93389, 49.93861 ]
			},
			"properties" : {
				"LP." : 595,
				"ID" : 249180580,
				"Nazwa" : "GOCZAŁKOWICE",
				"Województwo" : "śląskie",
				"Powiat" : "powiat pszczyński"
			}
		},
		{
			"type" : "Feature",
			"geometry" : {
				"type" : "Point",
				"coordinates" : [ 20.43333, 49.88722 ]
			},
			"properties" : {
				"LP." : 596,
				"ID" : 249201050,
				"Nazwa" : "KRÓLÓWKA",
				"Województwo" : "małopolskie",
				"Powiat" : "powiat bocheński"
			}
		},
		{
			"type" : "Feature",
			"geometry" : {
				"type" : "Point",
				"coordinates" : [ 21.12667, 49.55056 ]
			},
			"properties" : {
				"LP." : 597,
				"ID" : 249210280,
				"Nazwa" : "KUNKOWA",
				"Województwo" : "małopolskie",
				"Powiat" : "powiat gorlicki"
			}
		},
		{
			"type" : "Feature",
			"geometry" : {
				"type" : "Point",
				"coordinates" : [ 18.92833, 49.83944 ]
			},
			"properties" : {
				"LP." : 598,
				"ID" : 249180570,
				"Nazwa" : "MIĘDZYRZECZE GÓRNE",
				"Województwo" : "śląskie",
				"Powiat" : "powiat bielski"
			}
		},
		{
			"type" : "Feature",
			"geometry" : {
				"type" : "Point",
				"coordinates" : [ 22.85333, 53.86778 ]
			},
			"properties" : {
				"LP." : 599,
				"ID" : 253220360,
				"Nazwa" : "BIERNATKI",
				"Województwo" : "podlaskie",
				"Powiat" : "powiat augustowski"
			}
		},
		{
			"type" : "Feature",
			"geometry" : {
				"type" : "Point",
				"coordinates" : [ 18.07528, 54.62306 ]
			},
			"properties" : {
				"LP." : 600,
				"ID" : 254180270,
				"Nazwa" : "ZELEWO",
				"Województwo" : "pomorskie",
				"Powiat" : "powiat wejherowski"
			}
		},
		{
			"type" : "Feature",
			"geometry" : {
				"type" : "Point",
				"coordinates" : [ 17.80389, 50.43694 ]
			},
			"properties" : {
				"LP." : 601,
				"ID" : 250170850,
				"Nazwa" : "KUJAWY",
				"Województwo" : "opolskie",
				"Powiat" : "powiat krapkowicki"
			}
		},
		{
			"type" : "Feature",
			"geometry" : {
				"type" : "Point",
				"coordinates" : [ 18.51028, 50.43694 ]
			},
			"properties" : {
				"LP." : 602,
				"ID" : 250180710,
				"Nazwa" : "BOGUSZYCE",
				"Województwo" : "śląskie",
				"Powiat" : "powiat gliwicki"
			}
		},
		{
			"type" : "Feature",
			"geometry" : {
				"type" : "Point",
				"coordinates" : [ 17.59611, 51.335 ]
			},
			"properties" : {
				"LP." : 603,
				"ID" : 251170440,
				"Nazwa" : "DROŁTOWICE",
				"Województwo" : "dolnośląskie",
				"Powiat" : "powiat oleśnicki"
			}
		},
		{
			"type" : "Feature",
			"geometry" : {
				"type" : "Point",
				"coordinates" : [ 18.19083, 50.865 ]
			},
			"properties" : {
				"LP." : 604,
				"ID" : 250180670,
				"Nazwa" : "TRZEBISZYN",
				"Województwo" : "opolskie",
				"Powiat" : "powiat kluczborski"
			}
		},
		{
			"type" : "Feature",
			"geometry" : {
				"type" : "Point",
				"coordinates" : [ 16.14278, 50.96694 ]
			},
			"properties" : {
				"LP." : 605,
				"ID" : 250160950,
				"Nazwa" : "KWIETNIKI",
				"Województwo" : "dolnośląskie",
				"Powiat" : "powiat jaworski"
			}
		},
		{
			"type" : "Feature",
			"geometry" : {
				"type" : "Point",
				"coordinates" : [ 19.59583, 50.36 ]
			},
			"properties" : {
				"LP." : 606,
				"ID" : 250190260,
				"Nazwa" : "GOLCZOWICE",
				"Województwo" : "małopolskie",
				"Powiat" : "powiat olkuski"
			}
		},
		{
			"type" : "Feature",
			"geometry" : {
				"type" : "Point",
				"coordinates" : [ 16.57778, 50.59056 ]
			},
			"properties" : {
				"LP." : 607,
				"ID" : 250160980,
				"Nazwa" : "WOLIBÓRZ",
				"Województwo" : "dolnośląskie",
				"Powiat" : "powiat kłodzki"
			}
		},
		{
			"type" : "Feature",
			"geometry" : {
				"type" : "Point",
				"coordinates" : [ 16.8325, 50.20861 ]
			},
			"properties" : {
				"LP." : 608,
				"ID" : 250160970,
				"Nazwa" : "ŚNIEŻNIK",
				"Województwo" : "dolnośląskie",
				"Powiat" : "powiat kłodzki"
			}
		},
		{
			"type" : "Feature",
			"geometry" : {
				"type" : "Point",
				"coordinates" : [ 19.72694, 49.61944 ]
			},
			"properties" : {
				"LP." : 609,
				"ID" : 249190970,
				"Nazwa" : "SIDZINA",
				"Województwo" : "małopolskie",
				"Powiat" : "powiat suski"
			}
		},
		{
			"type" : "Feature",
			"geometry" : {
				"type" : "Point",
				"coordinates" : [ 18.86194, 49.58056 ]
			},
			"properties" : {
				"LP." : 610,
				"ID" : 249180270,
				"Nazwa" : "ISTEBNA-MŁODA GÓRA",
				"Województwo" : "śląskie",
				"Powiat" : "powiat cieszyński"
			}
		},
		{
			"type" : "Feature",
			"geometry" : {
				"type" : "Point",
				"coordinates" : [ 21.72056, 52.84972 ]
			},
			"properties" : {
				"LP." : 611,
				"ID" : 252210330,
				"Nazwa" : "RZĄŚNIK WŁOŚCIAŃSKI",
				"Województwo" : "mazowieckie",
				"Powiat" : "powiat ostrowski"
			}
		},
		{
			"type" : "Feature",
			"geometry" : {
				"type" : "Point",
				"coordinates" : [ 16.53833, 50.27667 ]
			},
			"properties" : {
				"LP." : 612,
				"ID" : 250160580,
				"Nazwa" : "SPALONA",
				"Województwo" : "dolnośląskie",
				"Powiat" : "powiat kłodzki"
			}
		},
		{
			"type" : "Feature",
			"geometry" : {
				"type" : "Point",
				"coordinates" : [ 18.79972, 49.82167 ]
			},
			"properties" : {
				"LP." : 613,
				"ID" : 249180630,
				"Nazwa" : "KICZYCE",
				"Województwo" : "śląskie",
				"Powiat" : "powiat cieszyński"
			}
		},
		{
			"type" : "Feature",
			"geometry" : {
				"type" : "Point",
				"coordinates" : [ 15.51194, 50.79111 ]
			},
			"properties" : {
				"LP." : 614,
				"ID" : 250150550,
				"Nazwa" : "SZRENICA",
				"Województwo" : "dolnośląskie",
				"Powiat" : "powiat karkonoski"
			}
		},
		{
			"type" : "Feature",
			"geometry" : {
				"type" : "Point",
				"coordinates" : [ 16.89083, 50.25472 ]
			},
			"properties" : {
				"LP." : 615,
				"ID" : 250160610,
				"Nazwa" : "BOLESŁAWÓW",
				"Województwo" : "dolnośląskie",
				"Powiat" : "powiat kłodzki"
			}
		},
		{
			"type" : "Feature",
			"geometry" : {
				"type" : "Point",
				"coordinates" : [ 18.02944, 50.985 ]
			},
			"properties" : {
				"LP." : 616,
				"ID" : 250180750,
				"Nazwa" : "WĄSICE",
				"Województwo" : "opolskie",
				"Powiat" : "powiat kluczborski"
			}
		},
		{
			"type" : "Feature",
			"geometry" : {
				"type" : "Point",
				"coordinates" : [ 23.09083, 52.73667 ]
			},
			"properties" : {
				"LP." : 617,
				"ID" : 252230290,
				"Nazwa" : "BOLESTY",
				"Województwo" : "podlaskie",
				"Powiat" : "powiat bielski"
			}
		},
		{
			"type" : "Feature",
			"geometry" : {
				"type" : "Point",
				"coordinates" : [ 23.48917, 52.69722 ]
			},
			"properties" : {
				"LP." : 618,
				"ID" : 252230280,
				"Nazwa" : "JAGODNIKI",
				"Województwo" : "podlaskie",
				"Powiat" : "powiat hajnowski"
			}
		},
		{
			"type" : "Feature",
			"geometry" : {
				"type" : "Point",
				"coordinates" : [ 19.37667, 50.1125 ]
			},
			"properties" : {
				"LP." : 619,
				"ID" : 250190790,
				"Nazwa" : "CHRZANÓW",
				"Województwo" : "małopolskie",
				"Powiat" : "powiat chrzanowski"
			}
		},
		{
			"type" : "Feature",
			"geometry" : {
				"type" : "Point",
				"coordinates" : [ 18.75361, 50.365 ]
			},
			"properties" : {
				"LP." : 620,
				"ID" : 250180640,
				"Nazwa" : "ZABRZE",
				"Województwo" : "śląskie",
				"Powiat" : "powiat Zabrze"
			}
		},
		{
			"type" : "Feature",
			"geometry" : {
				"type" : "Point",
				"coordinates" : [ 19.43111, 50.43528 ]
			},
			"properties" : {
				"LP." : 621,
				"ID" : 250190840,
				"Nazwa" : "ROKITNO SZLACHECKIE",
				"Województwo" : "śląskie",
				"Powiat" : "powiat zawierciański"
			}
		},
		{
			"type" : "Feature",
			"geometry" : {
				"type" : "Point",
				"coordinates" : [ 21.23139, 49.59611 ]
			},
			"properties" : {
				"LP." : 622,
				"ID" : 249210370,
				"Nazwa" : "ROPICA GÓRNA",
				"Województwo" : "małopolskie",
				"Powiat" : "powiat gorlicki"
			}
		},
		{
			"type" : "Feature",
			"geometry" : {
				"type" : "Point",
				"coordinates" : [ 19.60583, 49.75389 ]
			},
			"properties" : {
				"LP." : 623,
				"ID" : 249190980,
				"Nazwa" : "SUCHA BESKIDZKA",
				"Województwo" : "małopolskie",
				"Powiat" : "powiat suski"
			}
		},
		{
			"type" : "Feature",
			"geometry" : {
				"type" : "Point",
				"coordinates" : [ 15.72611, 50.74361 ]
			},
			"properties" : {
				"LP." : 624,
				"ID" : 250150560,
				"Nazwa" : "MAŁA KOPA",
				"Województwo" : "dolnośląskie",
				"Powiat" : "powiat karkonoski"
			}
		},
		{
			"type" : "Feature",
			"geometry" : {
				"type" : "Point",
				"coordinates" : [ 18.48306, 50.15444 ]
			},
			"properties" : {
				"LP." : 1,
				"ID" : 250180590,
				"Nazwa" : "RYBNIK-STODOŁY",
				"Województwo" : "śląskie",
				"Powiat" : "powiat Rybnik"
			}
		},
		{
			"type" : "Feature",
			"geometry" : {
				"type" : "Point",
				"coordinates" : [ 14.73167, 54.02222 ]
			},
			"properties" : {
				"LP." : 2,
				"ID" : 254140010,
				"Nazwa" : "DZIWNÓW",
				"Województwo" : "zachodniopomorskie",
				"Powiat" : "powiat kamieński"
			}
		},
		{
			"type" : "Feature",
			"geometry" : {
				"type" : "Point",
				"coordinates" : [ 16.39417, 50.33 ]
			},
			"properties" : {
				"LP." : 3,
				"ID" : 250160530,
				"Nazwa" : "ZIELENIEC",
				"Województwo" : "dolnośląskie",
				"Powiat" : "powiat kłodzki"
			}
		},
		{
			"type" : "Feature",
			"geometry" : {
				"type" : "Point",
				"coordinates" : [ 16.77306, 50.21833 ]
			},
			"properties" : {
				"LP." : 4,
				"ID" : 250160630,
				"Nazwa" : "MIĘDZYGÓRZE",
				"Województwo" : "dolnośląskie",
				"Powiat" : "powiat kłodzki"
			}
		},
		{
			"type" : "Feature",
			"geometry" : {
				"type" : "Point",
				"coordinates" : [ 16.67083, 50.15333 ]
			},
			"properties" : {
				"LP." : 5,
				"ID" : 250160650,
				"Nazwa" : "MIĘDZYLESIE",
				"Województwo" : "dolnośląskie",
				"Powiat" : "powiat kłodzki"
			}
		},
		{
			"type" : "Feature",
			"geometry" : {
				"type" : "Point",
				"coordinates" : [ 17.01722, 50.75861 ]
			},
			"properties" : {
				"LP." : 6,
				"ID" : 250170110,
				"Nazwa" : "DOBROGOSZCZ",
				"Województwo" : "dolnośląskie",
				"Powiat" : "powiat strzeliński"
			}
		},
		{
			"type" : "Feature",
			"geometry" : {
				"type" : "Point",
				"coordinates" : [ 17.16639, 50.47222 ]
			},
			"properties" : {
				"LP." : 7,
				"ID" : 250170250,
				"Nazwa" : "OTMUCHÓW",
				"Województwo" : "opolskie",
				"Powiat" : "powiat nyski"
			}
		},
		{
			"type" : "Feature",
			"geometry" : {
				"type" : "Point",
				"coordinates" : [ 17.08417, 50.41139 ]
			},
			"properties" : {
				"LP." : 8,
				"ID" : 250170290,
				"Nazwa" : "DZIEWIĘTLICE",
				"Województwo" : "opolskie",
				"Powiat" : "powiat nyski"
			}
		},
		{
			"type" : "Feature",
			"geometry" : {
				"type" : "Point",
				"coordinates" : [ 17.38722, 50.30222 ]
			},
			"properties" : {
				"LP." : 9,
				"ID" : 250170330,
				"Nazwa" : "GŁUCHOŁAZY",
				"Województwo" : "opolskie",
				"Powiat" : "powiat nyski"
			}
		},
		{
			"type" : "Feature",
			"geometry" : {
				"type" : "Point",
				"coordinates" : [ 17.43806, 50.28806 ]
			},
			"properties" : {
				"LP." : 10,
				"ID" : 250170340,
				"Nazwa" : "JARNOŁTÓWEK",
				"Województwo" : "opolskie",
				"Powiat" : "powiat nyski"
			}
		},
		{
			"type" : "Feature",
			"geometry" : {
				"type" : "Point",
				"coordinates" : [ 17.79472, 50.18194 ]
			},
			"properties" : {
				"LP." : 11,
				"ID" : 250170390,
				"Nazwa" : "GŁUBCZYCE",
				"Województwo" : "opolskie",
				"Powiat" : "powiat głubczycki"
			}
		},
		{
			"type" : "Feature",
			"geometry" : {
				"type" : "Point",
				"coordinates" : [ 18.62333, 50.56917 ]
			},
			"properties" : {
				"LP." : 12,
				"ID" : 250180190,
				"Nazwa" : "KRUPSKI MŁYN",
				"Województwo" : "śląskie",
				"Powiat" : "powiat tarnogórski"
			}
		},
		{
			"type" : "Feature",
			"geometry" : {
				"type" : "Point",
				"coordinates" : [ 18.9425, 50.42889 ]
			},
			"properties" : {
				"LP." : 13,
				"ID" : 250180270,
				"Nazwa" : "ŚWIERKLANIEC",
				"Województwo" : "śląskie",
				"Powiat" : "powiat tarnogórski"
			}
		},
		{
			"type" : "Feature",
			"geometry" : {
				"type" : "Point",
				"coordinates" : [ 19.96111, 50.94194 ]
			},
			"properties" : {
				"LP." : 14,
				"ID" : 250190010,
				"Nazwa" : "JANUSZEWICE",
				"Województwo" : "świętokrzyskie",
				"Powiat" : "powiat włoszczowski"
			}
		},
		{
			"type" : "Feature",
			"geometry" : {
				"type" : "Point",
				"coordinates" : [ 19.75889, 50.92194 ]
			},
			"properties" : {
				"LP." : 15,
				"ID" : 250190030,
				"Nazwa" : "SILNICZKA",
				"Województwo" : "łódzkie",
				"Powiat" : "powiat radomszczański"
			}
		},
		{
			"type" : "Feature",
			"geometry" : {
				"type" : "Point",
				"coordinates" : [ 20.18278, 51.52806 ]
			},
			"properties" : {
				"LP." : 16,
				"ID" : 251200290,
				"Nazwa" : "TEOFILÓW",
				"Województwo" : "łódzkie",
				"Powiat" : "powiat tomaszowski"
			}
		},
		{
			"type" : "Feature",
			"geometry" : {
				"type" : "Point",
				"coordinates" : [ 19.54361, 54.22333 ]
			},
			"properties" : {
				"LP." : 17,
				"ID" : 354190160,
				"Nazwa" : "ELBLĄG-MILEJEWO",
				"Województwo" : "warmińsko-mazurskie",
				"Powiat" : "powiat elbląski"
			}
		},
		{
			"type" : "Feature",
			"geometry" : {
				"type" : "Point",
				"coordinates" : [ 18.70556, 49.99194 ]
			},
			"properties" : {
				"LP." : 18,
				"ID" : 249180020,
				"Nazwa" : "WARSZOWICE",
				"Województwo" : "śląskie",
				"Powiat" : "powiat pszczyński"
			}
		},
		{
			"type" : "Feature",
			"geometry" : {
				"type" : "Point",
				"coordinates" : [ 18.96944, 49.8625 ]
			},
			"properties" : {
				"LP." : 19,
				"ID" : 249180070,
				"Nazwa" : "MAZAŃCOWICE",
				"Województwo" : "śląskie",
				"Powiat" : "powiat bielski"
			}
		},
		{
			"type" : "Feature",
			"geometry" : {
				"type" : "Point",
				"coordinates" : [ 20.61222, 51.09889 ]
			},
			"properties" : {
				"LP." : 20,
				"ID" : 251200220,
				"Nazwa" : "WŁOCHÓW",
				"Województwo" : "świętokrzyskie",
				"Powiat" : "powiat konecki"
			}
		},
		{
			"type" : "Feature",
			"geometry" : {
				"type" : "Point",
				"coordinates" : [ 20.83056, 51.04972 ]
			},
			"properties" : {
				"LP." : 21,
				"ID" : 251200250,
				"Nazwa" : "SUCHEDNIÓW",
				"Województwo" : "świętokrzyskie",
				"Powiat" : "powiat skarżyski"
			}
		},
		{
			"type" : "Feature",
			"geometry" : {
				"type" : "Point",
				"coordinates" : [ 19.38028, 50.64 ]
			},
			"properties" : {
				"LP." : 22,
				"ID" : 250190140,
				"Nazwa" : "ŻARKI",
				"Województwo" : "śląskie",
				"Powiat" : "powiat myszkowski"
			}
		},
		{
			"type" : "Feature",
			"geometry" : {
				"type" : "Point",
				"coordinates" : [ 21.05583, 51.04167 ]
			},
			"properties" : {
				"LP." : 23,
				"ID" : 251210230,
				"Nazwa" : "STARACHOWICE",
				"Województwo" : "świętokrzyskie",
				"Powiat" : "powiat starachowicki"
			}
		},
		{
			"type" : "Feature",
			"geometry" : {
				"type" : "Point",
				"coordinates" : [ 21.19694, 51.01861 ]
			},
			"properties" : {
				"LP." : 24,
				"ID" : 251210240,
				"Nazwa" : "BRODY IŁŻECKIE",
				"Województwo" : "świętokrzyskie",
				"Powiat" : "powiat starachowicki"
			}
		},
		{
			"type" : "Feature",
			"geometry" : {
				"type" : "Point",
				"coordinates" : [ 22.60083, 51.76917 ]
			},
			"properties" : {
				"LP." : 25,
				"ID" : 251220040,
				"Nazwa" : "RADZYŃ PODLASKI",
				"Województwo" : "lubelskie",
				"Powiat" : "powiat radzyński"
			}
		},
		{
			"type" : "Feature",
			"geometry" : {
				"type" : "Point",
				"coordinates" : [ 16.83889, 52.81583 ]
			},
			"properties" : {
				"LP." : 26,
				"ID" : 252160050,
				"Nazwa" : "RYCZYWÓŁ",
				"Województwo" : "wielkopolskie",
				"Powiat" : "powiat obornicki"
			}
		},
		{
			"type" : "Feature",
			"geometry" : {
				"type" : "Point",
				"coordinates" : [ 17.46222, 52.75472 ]
			},
			"properties" : {
				"LP." : 27,
				"ID" : 252170060,
				"Nazwa" : "JANOWIEC WIELKOPOLSKI",
				"Województwo" : "kujawsko-pomorskie",
				"Powiat" : "powiat żniński"
			}
		},
		{
			"type" : "Feature",
			"geometry" : {
				"type" : "Point",
				"coordinates" : [ 18.49833, 52.01028 ]
			},
			"properties" : {
				"LP." : 28,
				"ID" : 252180260,
				"Nazwa" : "TUREK",
				"Województwo" : "wielkopolskie",
				"Powiat" : "powiat turecki"
			}
		},
		{
			"type" : "Feature",
			"geometry" : {
				"type" : "Point",
				"coordinates" : [ 19.62306, 52.24278 ]
			},
			"properties" : {
				"LP." : 29,
				"ID" : 252190120,
				"Nazwa" : "ŻYCHLIN",
				"Województwo" : "łódzkie",
				"Powiat" : "powiat kutnowski"
			}
		},
		{
			"type" : "Feature",
			"geometry" : {
				"type" : "Point",
				"coordinates" : [ 20.66028, 52.56194 ]
			},
			"properties" : {
				"LP." : 30,
				"ID" : 252200080,
				"Nazwa" : "BORKOWO",
				"Województwo" : "mazowieckie",
				"Powiat" : "powiat nowodworski"
			}
		},
		{
			"type" : "Feature",
			"geometry" : {
				"type" : "Point",
				"coordinates" : [ 21.09028, 52.7275 ]
			},
			"properties" : {
				"LP." : 31,
				"ID" : 252210050,
				"Nazwa" : "PUŁTUSK",
				"Województwo" : "mazowieckie",
				"Powiat" : "powiat pułtuski"
			}
		},
		{
			"type" : "Feature",
			"geometry" : {
				"type" : "Point",
				"coordinates" : [ 22.82639, 52.74194 ]
			},
			"properties" : {
				"LP." : 32,
				"ID" : 252220050,
				"Nazwa" : "BRAŃSK",
				"Województwo" : "podlaskie",
				"Powiat" : "powiat bielski"
			}
		},
		{
			"type" : "Feature",
			"geometry" : {
				"type" : "Point",
				"coordinates" : [ 22.56556, 52.41194 ]
			},
			"properties" : {
				"LP." : 33,
				"ID" : 252220120,
				"Nazwa" : "TONKIELE",
				"Województwo" : "podlaskie",
				"Powiat" : "powiat siemiatycki"
			}
		},
		{
			"type" : "Feature",
			"geometry" : {
				"type" : "Point",
				"coordinates" : [ 23.87889, 52.9725 ]
			},
			"properties" : {
				"LP." : 34,
				"ID" : 252230010,
				"Nazwa" : "NOWOSADY",
				"Województwo" : "podlaskie",
				"Powiat" : "powiat białostocki"
			}
		},
		{
			"type" : "Feature",
			"geometry" : {
				"type" : "Point",
				"coordinates" : [ 23.75444, 52.9375 ]
			},
			"properties" : {
				"LP." : 35,
				"ID" : 252230030,
				"Nazwa" : "BONDARY",
				"Województwo" : "podlaskie",
				"Powiat" : "powiat hajnowski"
			}
		},
		{
			"type" : "Feature",
			"geometry" : {
				"type" : "Point",
				"coordinates" : [ 23.51917, 52.91472 ]
			},
			"properties" : {
				"LP." : 36,
				"ID" : 252230040,
				"Nazwa" : "NAREW",
				"Województwo" : "podlaskie",
				"Powiat" : "powiat hajnowski"
			}
		},
		{
			"type" : "Feature",
			"geometry" : {
				"type" : "Point",
				"coordinates" : [ 23.19556, 52.86222 ]
			},
			"properties" : {
				"LP." : 37,
				"ID" : 252230090,
				"Nazwa" : "CHRABOŁY",
				"Województwo" : "podlaskie",
				"Powiat" : "powiat bielski"
			}
		},
		{
			"type" : "Feature",
			"geometry" : {
				"type" : "Point",
				"coordinates" : [ 23.84778, 52.70722 ]
			},
			"properties" : {
				"LP." : 38,
				"ID" : 252230120,
				"Nazwa" : "BIAŁOWIEŻA",
				"Województwo" : "podlaskie",
				"Powiat" : "powiat hajnowski"
			}
		},
		{
			"type" : "Feature",
			"geometry" : {
				"type" : "Point",
				"coordinates" : [ 14.61583, 53.8375 ]
			},
			"properties" : {
				"LP." : 39,
				"ID" : 253140010,
				"Nazwa" : "WOLIN",
				"Województwo" : "zachodniopomorskie",
				"Powiat" : "powiat kamieński"
			}
		},
		{
			"type" : "Feature",
			"geometry" : {
				"type" : "Point",
				"coordinates" : [ 15.80917, 53.65056 ]
			},
			"properties" : {
				"LP." : 40,
				"ID" : 253150070,
				"Nazwa" : "ŁABĘDZIE",
				"Województwo" : "zachodniopomorskie",
				"Powiat" : "powiat drawski"
			}
		},
		{
			"type" : "Feature",
			"geometry" : {
				"type" : "Point",
				"coordinates" : [ 15.30139, 53.43083 ]
			},
			"properties" : {
				"LP." : 41,
				"ID" : 253150130,
				"Nazwa" : "LISOWO",
				"Województwo" : "zachodniopomorskie",
				"Powiat" : "powiat stargardzki"
			}
		},
		{
			"type" : "Feature",
			"geometry" : {
				"type" : "Point",
				"coordinates" : [ 20.38333, 49.64028 ]
			},
			"properties" : {
				"LP." : 42,
				"ID" : 249200220,
				"Nazwa" : "ROZTOKA",
				"Województwo" : "małopolskie",
				"Powiat" : "powiat limanowski"
			}
		},
		{
			"type" : "Feature",
			"geometry" : {
				"type" : "Point",
				"coordinates" : [ 20.88667, 49.60028 ]
			},
			"properties" : {
				"LP." : 43,
				"ID" : 249200240,
				"Nazwa" : "PTASZKOWA",
				"Województwo" : "małopolskie",
				"Powiat" : "powiat nowosądecki"
			}
		},
		{
			"type" : "Feature",
			"geometry" : {
				"type" : "Point",
				"coordinates" : [ 20.43944, 49.55972 ]
			},
			"properties" : {
				"LP." : 44,
				"ID" : 249200260,
				"Nazwa" : "ŁĄCKO",
				"Województwo" : "małopolskie",
				"Powiat" : "powiat nowosądecki"
			}
		},
		{
			"type" : "Feature",
			"geometry" : {
				"type" : "Point",
				"coordinates" : [ 20.11806, 49.54472 ]
			},
			"properties" : {
				"LP." : 45,
				"ID" : 249200270,
				"Nazwa" : "TURBACZ",
				"Województwo" : "małopolskie",
				"Powiat" : "powiat nowotarski"
			}
		},
		{
			"type" : "Feature",
			"geometry" : {
				"type" : "Point",
				"coordinates" : [ 20.85861, 49.52611 ]
			},
			"properties" : {
				"LP." : 46,
				"ID" : 249200280,
				"Nazwa" : "ŁABOWA",
				"Województwo" : "małopolskie",
				"Powiat" : "powiat nowosądecki"
			}
		},
		{
			"type" : "Feature",
			"geometry" : {
				"type" : "Point",
				"coordinates" : [ 20.24472, 49.51028 ]
			},
			"properties" : {
				"LP." : 47,
				"ID" : 249200290,
				"Nazwa" : "OCHOTNICA GÓRNA",
				"Województwo" : "małopolskie",
				"Powiat" : "powiat nowotarski"
			}
		},
		{
			"type" : "Feature",
			"geometry" : {
				"type" : "Point",
				"coordinates" : [ 20.12361, 49.47417 ]
			},
			"properties" : {
				"LP." : 48,
				"ID" : 249200320,
				"Nazwa" : "ŁOPUSZNA",
				"Województwo" : "małopolskie",
				"Powiat" : "powiat nowotarski"
			}
		},
		{
			"type" : "Feature",
			"geometry" : {
				"type" : "Point",
				"coordinates" : [ 20.21194, 49.49528 ]
			},
			"properties" : {
				"LP." : 49,
				"ID" : 249200330,
				"Nazwa" : "STUDZIONKI",
				"Województwo" : "małopolskie",
				"Powiat" : "powiat nowotarski"
			}
		},
		{
			"type" : "Feature",
			"geometry" : {
				"type" : "Point",
				"coordinates" : [ 20.20944, 49.46583 ]
			},
			"properties" : {
				"LP." : 50,
				"ID" : 249200340,
				"Nazwa" : "DĘBNO",
				"Województwo" : "małopolskie",
				"Powiat" : "powiat nowotarski"
			}
		},
		{
			"type" : "Feature",
			"geometry" : {
				"type" : "Point",
				"coordinates" : [ 20.95667, 49.465 ]
			},
			"properties" : {
				"LP." : 51,
				"ID" : 249200350,
				"Nazwa" : "HUTA",
				"Województwo" : "małopolskie",
				"Powiat" : "powiat nowosądecki"
			}
		},
		{
			"type" : "Feature",
			"geometry" : {
				"type" : "Point",
				"coordinates" : [ 20.28194, 49.45528 ]
			},
			"properties" : {
				"LP." : 52,
				"ID" : 249200360,
				"Nazwa" : "MIZERNA",
				"Województwo" : "małopolskie",
				"Powiat" : "powiat nowotarski"
			}
		},
		{
			"type" : "Feature",
			"geometry" : {
				"type" : "Point",
				"coordinates" : [ 20.43167, 49.44556 ]
			},
			"properties" : {
				"LP." : 53,
				"ID" : 249200370,
				"Nazwa" : "KROŚCIENKO",
				"Województwo" : "małopolskie",
				"Powiat" : "powiat nowotarski"
			}
		},
		{
			"type" : "Feature",
			"geometry" : {
				"type" : "Point",
				"coordinates" : [ 20.31583, 49.41778 ]
			},
			"properties" : {
				"LP." : 54,
				"ID" : 249200420,
				"Nazwa" : "NIEDZICA",
				"Województwo" : "małopolskie",
				"Powiat" : "powiat nowotarski"
			}
		},
		{
			"type" : "Feature",
			"geometry" : {
				"type" : "Point",
				"coordinates" : [ 20.10722, 49.41222 ]
			},
			"properties" : {
				"LP." : 55,
				"ID" : 249200450,
				"Nazwa" : "BIAŁKA TATRZAŃSKA",
				"Województwo" : "małopolskie",
				"Powiat" : "powiat tatrzański"
			}
		},
		{
			"type" : "Feature",
			"geometry" : {
				"type" : "Point",
				"coordinates" : [ 20.09833, 49.3375 ]
			},
			"properties" : {
				"LP." : 56,
				"ID" : 249200480,
				"Nazwa" : "BUKOWINA TATRZAŃSKA",
				"Województwo" : "małopolskie",
				"Powiat" : "powiat tatrzański"
			}
		},
		{
			"type" : "Feature",
			"geometry" : {
				"type" : "Point",
				"coordinates" : [ 20.88639, 49.34972 ]
			},
			"properties" : {
				"LP." : 57,
				"ID" : 249200490,
				"Nazwa" : "MUSZYNA",
				"Województwo" : "małopolskie",
				"Powiat" : "powiat nowosądecki"
			}
		},
		{
			"type" : "Feature",
			"geometry" : {
				"type" : "Point",
				"coordinates" : [ 20.115, 49.26361 ]
			},
			"properties" : {
				"LP." : 58,
				"ID" : 249200530,
				"Nazwa" : "ŁYSA POLANA",
				"Województwo" : "małopolskie",
				"Powiat" : "powiat tatrzański"
			}
		},
		{
			"type" : "Feature",
			"geometry" : {
				"type" : "Point",
				"coordinates" : [ 20.00583, 49.24389 ]
			},
			"properties" : {
				"LP." : 59,
				"ID" : 249200540,
				"Nazwa" : "HALA GĄSIENICOWA",
				"Województwo" : "małopolskie",
				"Powiat" : "powiat tatrzański"
			}
		},
		{
			"type" : "Feature",
			"geometry" : {
				"type" : "Point",
				"coordinates" : [ 20.04778, 49.21361 ]
			},
			"properties" : {
				"LP." : 60,
				"ID" : 249200550,
				"Nazwa" : "DOLINA PIĘCIU STAWÓW",
				"Województwo" : "małopolskie",
				"Powiat" : "powiat tatrzański"
			}
		},
		{
			"type" : "Feature",
			"geometry" : {
				"type" : "Point",
				"coordinates" : [ 21.30833, 49.98722 ]
			},
			"properties" : {
				"LP." : 61,
				"ID" : 249210010,
				"Nazwa" : "PILZNO",
				"Województwo" : "podkarpackie",
				"Powiat" : "powiat dębicki"
			}
		},
		{
			"type" : "Feature",
			"geometry" : {
				"type" : "Point",
				"coordinates" : [ 21.81639, 49.87778 ]
			},
			"properties" : {
				"LP." : 62,
				"ID" : 249210040,
				"Nazwa" : "ŻARNOWA",
				"Województwo" : "podkarpackie",
				"Powiat" : "powiat strzyżowski"
			}
		},
		{
			"type" : "Feature",
			"geometry" : {
				"type" : "Point",
				"coordinates" : [ 21.29556, 49.73528 ]
			},
			"properties" : {
				"LP." : 63,
				"ID" : 249210070,
				"Nazwa" : "BIECZ-GRUDNA",
				"Województwo" : "małopolskie",
				"Powiat" : "powiat gorlicki"
			}
		},
		{
			"type" : "Feature",
			"geometry" : {
				"type" : "Point",
				"coordinates" : [ 21.485, 49.73556 ]
			},
			"properties" : {
				"LP." : 64,
				"ID" : 249210080,
				"Nazwa" : "JASŁO",
				"Województwo" : "podkarpackie",
				"Powiat" : "powiat jasielski"
			}
		},
		{
			"type" : "Feature",
			"geometry" : {
				"type" : "Point",
				"coordinates" : [ 21.17111, 49.65528 ]
			},
			"properties" : {
				"LP." : 65,
				"ID" : 249210090,
				"Nazwa" : "GORLICE",
				"Województwo" : "małopolskie",
				"Powiat" : "powiat gorlicki"
			}
		},
		{
			"type" : "Feature",
			"geometry" : {
				"type" : "Point",
				"coordinates" : [ 18.64833, 49.75417 ]
			},
			"properties" : {
				"LP." : 66,
				"ID" : 249180130,
				"Nazwa" : "CIESZYN",
				"Województwo" : "śląskie",
				"Powiat" : "powiat cieszyński"
			}
		},
		{
			"type" : "Feature",
			"geometry" : {
				"type" : "Point",
				"coordinates" : [ 18.87083, 49.75361 ]
			},
			"properties" : {
				"LP." : 67,
				"ID" : 249180160,
				"Nazwa" : "BRENNA",
				"Województwo" : "śląskie",
				"Powiat" : "powiat cieszyński"
			}
		},
		{
			"type" : "Feature",
			"geometry" : {
				"type" : "Point",
				"coordinates" : [ 18.99472, 49.70306 ]
			},
			"properties" : {
				"LP." : 68,
				"ID" : 249180210,
				"Nazwa" : "SZCZYRK",
				"Województwo" : "śląskie",
				"Powiat" : "powiat bielski"
			}
		},
		{
			"type" : "Feature",
			"geometry" : {
				"type" : "Point",
				"coordinates" : [ 18.81972, 49.68333 ]
			},
			"properties" : {
				"LP." : 69,
				"ID" : 249180220,
				"Nazwa" : "CZANTORIA",
				"Województwo" : "śląskie",
				"Powiat" : "powiat cieszyński"
			}
		},
		{
			"type" : "Feature",
			"geometry" : {
				"type" : "Point",
				"coordinates" : [ 18.86139, 49.65472 ]
			},
			"properties" : {
				"LP." : 70,
				"ID" : 249180230,
				"Nazwa" : "WISŁA",
				"Województwo" : "śląskie",
				"Powiat" : "powiat cieszyński"
			}
		},
		{
			"type" : "Feature",
			"geometry" : {
				"type" : "Point",
				"coordinates" : [ 18.9675, 49.64472 ]
			},
			"properties" : {
				"LP." : 71,
				"ID" : 249180240,
				"Nazwa" : "WISŁA-MALINKA",
				"Województwo" : "śląskie",
				"Powiat" : "powiat cieszyński"
			}
		},
		{
			"type" : "Feature",
			"geometry" : {
				"type" : "Point",
				"coordinates" : [ 18.90111, 49.60361 ]
			},
			"properties" : {
				"LP." : 72,
				"ID" : 249180260,
				"Nazwa" : "ISTEBNA-KUBALONKA",
				"Województwo" : "śląskie",
				"Powiat" : "powiat cieszyński"
			}
		},
		{
			"type" : "Feature",
			"geometry" : {
				"type" : "Point",
				"coordinates" : [ 18.94028, 49.58528 ]
			},
			"properties" : {
				"LP." : 73,
				"ID" : 249180280,
				"Nazwa" : "ISTEBNA-STECÓWKA",
				"Województwo" : "śląskie",
				"Powiat" : "powiat cieszyński"
			}
		},
		{
			"type" : "Feature",
			"geometry" : {
				"type" : "Point",
				"coordinates" : [ 19.895, 49.9725 ]
			},
			"properties" : {
				"LP." : 74,
				"ID" : 249190030,
				"Nazwa" : "LIBERTÓW",
				"Województwo" : "małopolskie",
				"Powiat" : "powiat krakowski"
			}
		},
		{
			"type" : "Feature",
			"geometry" : {
				"type" : "Point",
				"coordinates" : [ 19.81278, 49.9425 ]
			},
			"properties" : {
				"LP." : 75,
				"ID" : 249190050,
				"Nazwa" : "RADZISZÓW",
				"Województwo" : "małopolskie",
				"Powiat" : "powiat krakowski"
			}
		},
		{
			"type" : "Feature",
			"geometry" : {
				"type" : "Point",
				"coordinates" : [ 19.96472, 49.90472 ]
			},
			"properties" : {
				"LP." : 76,
				"ID" : 249190060,
				"Nazwa" : "SIEPRAW",
				"Województwo" : "małopolskie",
				"Powiat" : "powiat myślenicki"
			}
		},
		{
			"type" : "Feature",
			"geometry" : {
				"type" : "Point",
				"coordinates" : [ 19.38861, 49.86722 ]
			},
			"properties" : {
				"LP." : 77,
				"ID" : 249190090,
				"Nazwa" : "INWAŁD",
				"Województwo" : "małopolskie",
				"Powiat" : "powiat wadowicki"
			}
		},
		{
			"type" : "Feature",
			"geometry" : {
				"type" : "Point",
				"coordinates" : [ 19.19611, 49.78944 ]
			},
			"properties" : {
				"LP." : 78,
				"ID" : 249190130,
				"Nazwa" : "MIĘDZYBRODZIE BIALSKIE",
				"Województwo" : "śląskie",
				"Powiat" : "powiat żywiecki"
			}
		},
		{
			"type" : "Feature",
			"geometry" : {
				"type" : "Point",
				"coordinates" : [ 19.44667, 49.79556 ]
			},
			"properties" : {
				"LP." : 79,
				"ID" : 249190140,
				"Nazwa" : "LESKOWIEC",
				"Województwo" : "małopolskie",
				"Powiat" : "powiat suski"
			}
		},
		{
			"type" : "Feature",
			"geometry" : {
				"type" : "Point",
				"coordinates" : [ 19.78806, 49.75944 ]
			},
			"properties" : {
				"LP." : 80,
				"ID" : 249190170,
				"Nazwa" : "BOGDANÓWKA",
				"Województwo" : "małopolskie",
				"Powiat" : "powiat myślenicki"
			}
		},
		{
			"type" : "Feature",
			"geometry" : {
				"type" : "Point",
				"coordinates" : [ 19.68806, 49.72583 ]
			},
			"properties" : {
				"LP." : 81,
				"ID" : 249190190,
				"Nazwa" : "MAKÓW PODHALAŃSKI",
				"Województwo" : "małopolskie",
				"Powiat" : "powiat suski"
			}
		},
		{
			"type" : "Feature",
			"geometry" : {
				"type" : "Point",
				"coordinates" : [ 19.35306, 49.7175 ]
			},
			"properties" : {
				"LP." : 82,
				"ID" : 249190220,
				"Nazwa" : "ŚLEMIEŃ",
				"Województwo" : "śląskie",
				"Powiat" : "powiat żywiecki"
			}
		},
		{
			"type" : "Feature",
			"geometry" : {
				"type" : "Point",
				"coordinates" : [ 19.41778, 49.68833 ]
			},
			"properties" : {
				"LP." : 83,
				"ID" : 249190240,
				"Nazwa" : "LACHOWICE KRALE",
				"Województwo" : "małopolskie",
				"Powiat" : "powiat suski"
			}
		},
		{
			"type" : "Feature",
			"geometry" : {
				"type" : "Point",
				"coordinates" : [ 19.91, 49.68361 ]
			},
			"properties" : {
				"LP." : 84,
				"ID" : 249190280,
				"Nazwa" : "KRZECZÓW",
				"Województwo" : "małopolskie",
				"Powiat" : "powiat myślenicki"
			}
		},
		{
			"type" : "Feature",
			"geometry" : {
				"type" : "Point",
				"coordinates" : [ 19.40444, 49.65583 ]
			},
			"properties" : {
				"LP." : 85,
				"ID" : 249190340,
				"Nazwa" : "KOSZARAWA",
				"Województwo" : "śląskie",
				"Powiat" : "powiat żywiecki"
			}
		},
		{
			"type" : "Feature",
			"geometry" : {
				"type" : "Point",
				"coordinates" : [ 19.51861, 49.61167 ]
			},
			"properties" : {
				"LP." : 86,
				"ID" : 249190350,
				"Nazwa" : "ZAWOJA",
				"Województwo" : "małopolskie",
				"Powiat" : "powiat suski"
			}
		},
		{
			"type" : "Feature",
			"geometry" : {
				"type" : "Point",
				"coordinates" : [ 19.51639, 49.5875 ]
			},
			"properties" : {
				"LP." : 87,
				"ID" : 249190390,
				"Nazwa" : "MARKOWE SZCZAWINY",
				"Województwo" : "małopolskie",
				"Powiat" : "powiat suski"
			}
		},
		{
			"type" : "Feature",
			"geometry" : {
				"type" : "Point",
				"coordinates" : [ 19.07944, 49.55917 ]
			},
			"properties" : {
				"LP." : 88,
				"ID" : 249190410,
				"Nazwa" : "MILÓWKA",
				"Województwo" : "śląskie",
				"Powiat" : "powiat żywiecki"
			}
		},
		{
			"type" : "Feature",
			"geometry" : {
				"type" : "Point",
				"coordinates" : [ 19.29944, 49.58167 ]
			},
			"properties" : {
				"LP." : 89,
				"ID" : 249190430,
				"Nazwa" : "SOPOTNIA WIELKA",
				"Województwo" : "śląskie",
				"Powiat" : "powiat żywiecki"
			}
		},
		{
			"type" : "Feature",
			"geometry" : {
				"type" : "Point",
				"coordinates" : [ 19.34833, 49.56861 ]
			},
			"properties" : {
				"LP." : 90,
				"ID" : 249190440,
				"Nazwa" : "KORBIELÓW",
				"Województwo" : "śląskie",
				"Powiat" : "powiat żywiecki"
			}
		},
		{
			"type" : "Feature",
			"geometry" : {
				"type" : "Point",
				"coordinates" : [ 19.01611, 49.54472 ]
			},
			"properties" : {
				"LP." : 91,
				"ID" : 249190480,
				"Nazwa" : "LALIKI",
				"Województwo" : "śląskie",
				"Powiat" : "powiat żywiecki"
			}
		},
		{
			"type" : "Feature",
			"geometry" : {
				"type" : "Point",
				"coordinates" : [ 19.96861, 49.54417 ]
			},
			"properties" : {
				"LP." : 92,
				"ID" : 249190520,
				"Nazwa" : "OBIDOWA",
				"Województwo" : "małopolskie",
				"Powiat" : "powiat nowotarski"
			}
		},
		{
			"type" : "Feature",
			"geometry" : {
				"type" : "Point",
				"coordinates" : [ 19.10528, 49.50611 ]
			},
			"properties" : {
				"LP." : 93,
				"ID" : 249190540,
				"Nazwa" : "RAJCZA",
				"Województwo" : "śląskie",
				"Powiat" : "powiat żywiecki"
			}
		},
		{
			"type" : "Feature",
			"geometry" : {
				"type" : "Point",
				"coordinates" : [ 19.00833, 49.42639 ]
			},
			"properties" : {
				"LP." : 94,
				"ID" : 249190580,
				"Nazwa" : "RYCERKA GÓRNA",
				"Województwo" : "śląskie",
				"Powiat" : "powiat żywiecki"
			}
		},
		{
			"type" : "Feature",
			"geometry" : {
				"type" : "Point",
				"coordinates" : [ 19.88361, 49.39167 ]
			},
			"properties" : {
				"LP." : 95,
				"ID" : 249190610,
				"Nazwa" : "RATUŁÓW",
				"Województwo" : "małopolskie",
				"Powiat" : "powiat nowotarski"
			}
		},
		{
			"type" : "Feature",
			"geometry" : {
				"type" : "Point",
				"coordinates" : [ 19.97333, 49.38417 ]
			},
			"properties" : {
				"LP." : 96,
				"ID" : 249190620,
				"Nazwa" : "BAŃSKA WYŻNA",
				"Województwo" : "małopolskie",
				"Powiat" : "powiat nowotarski"
			}
		},
		{
			"type" : "Feature",
			"geometry" : {
				"type" : "Point",
				"coordinates" : [ 19.825, 49.3275 ]
			},
			"properties" : {
				"LP." : 97,
				"ID" : 249190630,
				"Nazwa" : "WITÓW",
				"Województwo" : "małopolskie",
				"Powiat" : "powiat tatrzański"
			}
		},
		{
			"type" : "Feature",
			"geometry" : {
				"type" : "Point",
				"coordinates" : [ 19.92917, 49.33222 ]
			},
			"properties" : {
				"LP." : 98,
				"ID" : 249190640,
				"Nazwa" : "NOWE BYSTRE",
				"Województwo" : "małopolskie",
				"Powiat" : "powiat tatrzański"
			}
		},
		{
			"type" : "Feature",
			"geometry" : {
				"type" : "Point",
				"coordinates" : [ 19.86944, 49.2775 ]
			},
			"properties" : {
				"LP." : 99,
				"ID" : 249190660,
				"Nazwa" : "KOŚCIELISKO-KIRY",
				"Województwo" : "małopolskie",
				"Powiat" : "powiat tatrzański"
			}
		},
		{
			"type" : "Feature",
			"geometry" : {
				"type" : "Point",
				"coordinates" : [ 19.85944, 49.22917 ]
			},
			"properties" : {
				"LP." : 100,
				"ID" : 249190680,
				"Nazwa" : "HALA ORNAK",
				"Województwo" : "małopolskie",
				"Powiat" : "powiat tatrzański"
			}
		},
		{
			"type" : "Feature",
			"geometry" : {
				"type" : "Point",
				"coordinates" : [ 20.30917, 49.92083 ]
			},
			"properties" : {
				"LP." : 101,
				"ID" : 249200050,
				"Nazwa" : "STRADOMKA",
				"Województwo" : "małopolskie",
				"Powiat" : "powiat bocheński"
			}
		},
		{
			"type" : "Feature",
			"geometry" : {
				"type" : "Point",
				"coordinates" : [ 20.58833, 49.89528 ]
			},
			"properties" : {
				"LP." : 102,
				"ID" : 249200060,
				"Nazwa" : "GNOJNIK",
				"Województwo" : "małopolskie",
				"Powiat" : "powiat brzeski"
			}
		},
		{
			"type" : "Feature",
			"geometry" : {
				"type" : "Point",
				"coordinates" : [ 20.07056, 49.8775 ]
			},
			"properties" : {
				"LP." : 103,
				"ID" : 249200070,
				"Nazwa" : "DOBCZYCE",
				"Województwo" : "małopolskie",
				"Powiat" : "powiat myślenicki"
			}
		},
		{
			"type" : "Feature",
			"geometry" : {
				"type" : "Point",
				"coordinates" : [ 20.22472, 49.77083 ]
			},
			"properties" : {
				"LP." : 104,
				"ID" : 249200110,
				"Nazwa" : "JODŁOWNIK",
				"Województwo" : "małopolskie",
				"Powiat" : "powiat limanowski"
			}
		},
		{
			"type" : "Feature",
			"geometry" : {
				"type" : "Point",
				"coordinates" : [ 20.89639, 49.78639 ]
			},
			"properties" : {
				"LP." : 105,
				"ID" : 249200130,
				"Nazwa" : "JASTRZĘBIA",
				"Województwo" : "małopolskie",
				"Powiat" : "powiat tarnowski"
			}
		},
		{
			"type" : "Feature",
			"geometry" : {
				"type" : "Point",
				"coordinates" : [ 20.07444, 49.75028 ]
			},
			"properties" : {
				"LP." : 106,
				"ID" : 249200140,
				"Nazwa" : "WĘGLÓWKA",
				"Województwo" : "małopolskie",
				"Powiat" : "powiat myślenicki"
			}
		},
		{
			"type" : "Feature",
			"geometry" : {
				"type" : "Point",
				"coordinates" : [ 20.41833, 49.69361 ]
			},
			"properties" : {
				"LP." : 107,
				"ID" : 249200180,
				"Nazwa" : "LIMANOWA",
				"Województwo" : "małopolskie",
				"Powiat" : "powiat limanowski"
			}
		},
		{
			"type" : "Feature",
			"geometry" : {
				"type" : "Point",
				"coordinates" : [ 20.215, 49.6525 ]
			},
			"properties" : {
				"LP." : 108,
				"ID" : 249200210,
				"Nazwa" : "PÓŁRZECZKI",
				"Województwo" : "małopolskie",
				"Powiat" : "powiat limanowski"
			}
		},
		{
			"type" : "Feature",
			"geometry" : {
				"type" : "Point",
				"coordinates" : [ 18.8825, 49.85333 ]
			},
			"properties" : {
				"LP." : 109,
				"ID" : 249180090,
				"Nazwa" : "RUDZICA",
				"Województwo" : "śląskie",
				"Powiat" : "powiat bielski"
			}
		},
		{
			"type" : "Feature",
			"geometry" : {
				"type" : "Point",
				"coordinates" : [ 15.82417, 50.80361 ]
			},
			"properties" : {
				"LP." : 110,
				"ID" : 250150190,
				"Nazwa" : "KOWARY",
				"Województwo" : "dolnośląskie",
				"Powiat" : "powiat karkonoski"
			}
		},
		{
			"type" : "Feature",
			"geometry" : {
				"type" : "Point",
				"coordinates" : [ 15.76944, 50.77889 ]
			},
			"properties" : {
				"LP." : 111,
				"ID" : 250150220,
				"Nazwa" : "KARPACZ",
				"Województwo" : "dolnośląskie",
				"Powiat" : "powiat karkonoski"
			}
		},
		{
			"type" : "Feature",
			"geometry" : {
				"type" : "Point",
				"coordinates" : [ 15.91139, 50.73972 ]
			},
			"properties" : {
				"LP." : 112,
				"ID" : 250150240,
				"Nazwa" : "PACZYN",
				"Województwo" : "dolnośląskie",
				"Powiat" : "powiat kamiennogórski"
			}
		},
		{
			"type" : "Feature",
			"geometry" : {
				"type" : "Point",
				"coordinates" : [ 15.94806, 50.72667 ]
			},
			"properties" : {
				"LP." : 113,
				"ID" : 250150250,
				"Nazwa" : "PAPROTKI",
				"Województwo" : "dolnośląskie",
				"Powiat" : "powiat kamiennogórski"
			}
		},
		{
			"type" : "Feature",
			"geometry" : {
				"type" : "Point",
				"coordinates" : [ 15.95722, 50.71278 ]
			},
			"properties" : {
				"LP." : 114,
				"ID" : 250150260,
				"Nazwa" : "BUKÓWKA",
				"Województwo" : "dolnośląskie",
				"Powiat" : "powiat kamiennogórski"
			}
		},
		{
			"type" : "Feature",
			"geometry" : {
				"type" : "Point",
				"coordinates" : [ 16.99, 50.88222 ]
			},
			"properties" : {
				"LP." : 115,
				"ID" : 250160070,
				"Nazwa" : "BORÓW",
				"Województwo" : "dolnośląskie",
				"Powiat" : "powiat strzeliński"
			}
		},
		{
			"type" : "Feature",
			"geometry" : {
				"type" : "Point",
				"coordinates" : [ 16.54306, 50.85389 ]
			},
			"properties" : {
				"LP." : 116,
				"ID" : 250160090,
				"Nazwa" : "PSZENNO",
				"Województwo" : "dolnośląskie",
				"Powiat" : "powiat świdnicki"
			}
		},
		{
			"type" : "Feature",
			"geometry" : {
				"type" : "Point",
				"coordinates" : [ 16.19583, 50.80361 ]
			},
			"properties" : {
				"LP." : 117,
				"ID" : 250160120,
				"Nazwa" : "LUBOMIN",
				"Województwo" : "dolnośląskie",
				"Powiat" : "powiat wałbrzyski"
			}
		},
		{
			"type" : "Feature",
			"geometry" : {
				"type" : "Point",
				"coordinates" : [ 16.24111, 50.80667 ]
			},
			"properties" : {
				"LP." : 118,
				"ID" : 250160130,
				"Nazwa" : "SZCZAWNO-ZDRÓJ",
				"Województwo" : "dolnośląskie",
				"Powiat" : "powiat wałbrzyski"
			}
		},
		{
			"type" : "Feature",
			"geometry" : {
				"type" : "Point",
				"coordinates" : [ 16.03583, 50.79222 ]
			},
			"properties" : {
				"LP." : 119,
				"ID" : 250160150,
				"Nazwa" : "KAMIENNA GÓRA",
				"Województwo" : "dolnośląskie",
				"Powiat" : "powiat kamiennogórski"
			}
		},
		{
			"type" : "Feature",
			"geometry" : {
				"type" : "Point",
				"coordinates" : [ 16.42861, 50.76389 ]
			},
			"properties" : {
				"LP." : 120,
				"ID" : 250160170,
				"Nazwa" : "LUBACHÓW",
				"Województwo" : "dolnośląskie",
				"Powiat" : "powiat świdnicki"
			}
		},
		{
			"type" : "Feature",
			"geometry" : {
				"type" : "Point",
				"coordinates" : [ 16.19, 50.74944 ]
			},
			"properties" : {
				"LP." : 121,
				"ID" : 250160190,
				"Nazwa" : "BOGUSZÓW-GORCE",
				"Województwo" : "dolnośląskie",
				"Powiat" : "powiat wałbrzyski"
			}
		},
		{
			"type" : "Feature",
			"geometry" : {
				"type" : "Point",
				"coordinates" : [ 16.62417, 50.74333 ]
			},
			"properties" : {
				"LP." : 122,
				"ID" : 250160260,
				"Nazwa" : "DZIERŻONIÓW",
				"Województwo" : "dolnośląskie",
				"Powiat" : "powiat dzierżoniowski"
			}
		},
		{
			"type" : "Feature",
			"geometry" : {
				"type" : "Point",
				"coordinates" : [ 16.43917, 50.70278 ]
			},
			"properties" : {
				"LP." : 123,
				"ID" : 250160270,
				"Nazwa" : "WALIM",
				"Województwo" : "dolnośląskie",
				"Powiat" : "powiat wałbrzyski"
			}
		},
		{
			"type" : "Feature",
			"geometry" : {
				"type" : "Point",
				"coordinates" : [ 16.07, 50.67083 ]
			},
			"properties" : {
				"LP." : 124,
				"ID" : 250160290,
				"Nazwa" : "CHEŁMSKO ŚLĄSKIE",
				"Województwo" : "dolnośląskie",
				"Powiat" : "powiat kamiennogórski"
			}
		},
		{
			"type" : "Feature",
			"geometry" : {
				"type" : "Point",
				"coordinates" : [ 16.66472, 50.57722 ]
			},
			"properties" : {
				"LP." : 125,
				"ID" : 250160350,
				"Nazwa" : "SREBRNA GÓRA",
				"Województwo" : "dolnośląskie",
				"Powiat" : "powiat ząbkowicki"
			}
		},
		{
			"type" : "Feature",
			"geometry" : {
				"type" : "Point",
				"coordinates" : [ 16.22194, 50.43806 ]
			},
			"properties" : {
				"LP." : 126,
				"ID" : 250160450,
				"Nazwa" : "KUDOWA-ZDRÓJ",
				"Województwo" : "dolnośląskie",
				"Powiat" : "powiat kłodzki"
			}
		},
		{
			"type" : "Feature",
			"geometry" : {
				"type" : "Point",
				"coordinates" : [ 16.37944, 50.41 ]
			},
			"properties" : {
				"LP." : 127,
				"ID" : 250160480,
				"Nazwa" : "SŁOSZÓW",
				"Województwo" : "dolnośląskie",
				"Powiat" : "powiat kłodzki"
			}
		},
		{
			"type" : "Feature",
			"geometry" : {
				"type" : "Point",
				"coordinates" : [ 16.51833, 50.42528 ]
			},
			"properties" : {
				"LP." : 128,
				"ID" : 250160490,
				"Nazwa" : "POLANICA-ZDRÓJ",
				"Województwo" : "dolnośląskie",
				"Powiat" : "powiat kłodzki"
			}
		},
		{
			"type" : "Feature",
			"geometry" : {
				"type" : "Point",
				"coordinates" : [ 16.73472, 50.35667 ]
			},
			"properties" : {
				"LP." : 129,
				"ID" : 250160510,
				"Nazwa" : "OŁDRZYCHOWICE KŁODZKIE",
				"Województwo" : "dolnośląskie",
				"Powiat" : "powiat kłodzki"
			}
		},
		{
			"type" : "Feature",
			"geometry" : {
				"type" : "Point",
				"coordinates" : [ 21.42917, 52.57778 ]
			},
			"properties" : {
				"LP." : 130,
				"ID" : 252210290,
				"Nazwa" : "RYBIENKO",
				"Województwo" : "mazowieckie",
				"Powiat" : "powiat wyszkowski"
			}
		},
		{
			"type" : "Feature",
			"geometry" : {
				"type" : "Point",
				"coordinates" : [ 21.58972, 53.78917 ]
			},
			"properties" : {
				"LP." : 131,
				"ID" : 353210280,
				"Nazwa" : "MIKOŁAJKI",
				"Województwo" : "warmińsko-mazurskie",
				"Powiat" : "powiat mrągowski"
			}
		},
		{
			"type" : "Feature",
			"geometry" : {
				"type" : "Point",
				"coordinates" : [ 22.94889, 54.13083 ]
			},
			"properties" : {
				"LP." : 132,
				"ID" : 354220195,
				"Nazwa" : "SUWAŁKI",
				"Województwo" : "podlaskie",
				"Powiat" : "powiat Suwałki"
			}
		},
		{
			"type" : "Feature",
			"geometry" : {
				"type" : "Point",
				"coordinates" : [ 17.96889, 50.62694 ]
			},
			"properties" : {
				"LP." : 133,
				"ID" : 350170530,
				"Nazwa" : "OPOLE",
				"Województwo" : "opolskie",
				"Powiat" : "powiat Opole"
			}
		},
		{
			"type" : "Feature",
			"geometry" : {
				"type" : "Point",
				"coordinates" : [ 19.795, 50.07778 ]
			},
			"properties" : {
				"LP." : 134,
				"ID" : 350190566,
				"Nazwa" : "KRAKÓW-BALICE",
				"Województwo" : "małopolskie",
				"Powiat" : "powiat krakowski"
			}
		},
		{
			"type" : "Feature",
			"geometry" : {
				"type" : "Point",
				"coordinates" : [ 19.96028, 49.29389 ]
			},
			"properties" : {
				"LP." : 135,
				"ID" : 349190625,
				"Nazwa" : "ZAKOPANE",
				"Województwo" : "małopolskie",
				"Powiat" : "powiat tatrzański"
			}
		},
		{
			"type" : "Feature",
			"geometry" : {
				"type" : "Point",
				"coordinates" : [ 15.27722, 52.74111 ]
			},
			"properties" : {
				"LP." : 136,
				"ID" : 352150300,
				"Nazwa" : "GORZÓW WIELKOPOLSKI",
				"Województwo" : "lubuskie",
				"Powiat" : "powiat Gorzów Wielkopolski"
			}
		},
		{
			"type" : "Feature",
			"geometry" : {
				"type" : "Point",
				"coordinates" : [ 18.08083, 51.78111 ]
			},
			"properties" : {
				"LP." : 137,
				"ID" : 351180435,
				"Nazwa" : "KALISZ",
				"Województwo" : "wielkopolskie",
				"Powiat" : "powiat Kalisz"
			}
		},
		{
			"type" : "Feature",
			"geometry" : {
				"type" : "Point",
				"coordinates" : [ 18.70611, 52.36194 ]
			},
			"properties" : {
				"LP." : 138,
				"ID" : 352180345,
				"Nazwa" : "KOŁO-RADOSZEWICE",
				"Województwo" : "wielkopolskie",
				"Powiat" : "powiat kolski"
			}
		},
		{
			"type" : "Feature",
			"geometry" : {
				"type" : "Point",
				"coordinates" : [ 16.74722, 53.13056 ]
			},
			"properties" : {
				"LP." : 139,
				"ID" : 353160230,
				"Nazwa" : "PIŁA",
				"Województwo" : "wielkopolskie",
				"Powiat" : "powiat pilski"
			}
		},
		{
			"type" : "Feature",
			"geometry" : {
				"type" : "Point",
				"coordinates" : [ 16.83472, 52.41667 ]
			},
			"properties" : {
				"LP." : 140,
				"ID" : 352160330,
				"Nazwa" : "POZNAŃ-ŁAWICA",
				"Województwo" : "wielkopolskie",
				"Powiat" : "powiat Poznań"
			}
		},
		{
			"type" : "Feature",
			"geometry" : {
				"type" : "Point",
				"coordinates" : [ 14.61972, 52.34861 ]
			},
			"properties" : {
				"LP." : 141,
				"ID" : 352140310,
				"Nazwa" : "SŁUBICE",
				"Województwo" : "lubuskie",
				"Powiat" : "powiat słubicki"
			}
		},
		{
			"type" : "Feature",
			"geometry" : {
				"type" : "Point",
				"coordinates" : [ 16.74667, 53.71778 ]
			},
			"properties" : {
				"LP." : 142,
				"ID" : 353160215,
				"Nazwa" : "SZCZECINEK",
				"Województwo" : "zachodniopomorskie",
				"Powiat" : "powiat szczecinecki"
			}
		},
		{
			"type" : "Feature",
			"geometry" : {
				"type" : "Point",
				"coordinates" : [ 18.55667, 51.21028 ]
			},
			"properties" : {
				"LP." : 143,
				"ID" : 351180455,
				"Nazwa" : "WIELUŃ",
				"Województwo" : "łódzkie",
				"Powiat" : "powiat wieluński"
			}
		},
		{
			"type" : "Feature",
			"geometry" : {
				"type" : "Point",
				"coordinates" : [ 17.5325, 53.71528 ]
			},
			"properties" : {
				"LP." : 144,
				"ID" : 353170235,
				"Nazwa" : "CHOJNICE",
				"Województwo" : "pomorskie",
				"Powiat" : "powiat chojnicki"
			}
		},
		{
			"type" : "Feature",
			"geometry" : {
				"type" : "Point",
				"coordinates" : [ 16.15528, 54.20444 ]
			},
			"properties" : {
				"LP." : 145,
				"ID" : 354160105,
				"Nazwa" : "KOSZALIN",
				"Województwo" : "zachodniopomorskie",
				"Powiat" : "powiat Koszalin"
			}
		},
		{
			"type" : "Feature",
			"geometry" : {
				"type" : "Point",
				"coordinates" : [ 15.78889, 50.90028 ]
			},
			"properties" : {
				"LP." : 146,
				"ID" : 350150500,
				"Nazwa" : "JELENIA GÓRA",
				"Województwo" : "dolnośląskie",
				"Powiat" : "powiat Jelenia Góra"
			}
		},
		{
			"type" : "Feature",
			"geometry" : {
				"type" : "Point",
				"coordinates" : [ 16.20778, 51.1925 ]
			},
			"properties" : {
				"LP." : 147,
				"ID" : 351160415,
				"Nazwa" : "LEGNICA",
				"Województwo" : "dolnośląskie",
				"Powiat" : "powiat Legnica"
			}
		},
		{
			"type" : "Feature",
			"geometry" : {
				"type" : "Point",
				"coordinates" : [ 16.53472, 51.83556 ]
			},
			"properties" : {
				"LP." : 148,
				"ID" : 351160418,
				"Nazwa" : "LESZNO",
				"Województwo" : "wielkopolskie",
				"Powiat" : "powiat Leszno"
			}
		},
		{
			"type" : "Feature",
			"geometry" : {
				"type" : "Point",
				"coordinates" : [ 15.73972, 50.73639 ]
			},
			"properties" : {
				"LP." : 149,
				"ID" : 350150510,
				"Nazwa" : "ŚNIEŻKA",
				"Województwo" : "dolnośląskie",
				"Powiat" : "powiat karkonoski"
			}
		},
		{
			"type" : "Feature",
			"geometry" : {
				"type" : "Point",
				"coordinates" : [ 16.9, 51.10333 ]
			},
			"properties" : {
				"LP." : 150,
				"ID" : 351160424,
				"Nazwa" : "WROCŁAW-STRACHOWICE",
				"Województwo" : "dolnośląskie",
				"Powiat" : "powiat Wrocław"
			}
		},
		{
			"type" : "Feature",
			"geometry" : {
				"type" : "Point",
				"coordinates" : [ 19.89028, 50.06389 ]
			},
			"properties" : {
				"LP." : 151,
				"ID" : 250190470,
				"Nazwa" : "KRAKÓW-WOLA JUSTOWSKA",
				"Województwo" : "małopolskie",
				"Powiat" : "powiat Kraków"
			}
		},
		{
			"type" : "Feature",
			"geometry" : {
				"type" : "Point",
				"coordinates" : [ 16.77361, 53.9475 ]
			},
			"properties" : {
				"LP." : 152,
				"ID" : 253160010,
				"Nazwa" : "SĘPOLNO WIELKIE",
				"Województwo" : "zachodniopomorskie",
				"Powiat" : "powiat szczecinecki"
			}
		},
		{
			"type" : "Feature",
			"geometry" : {
				"type" : "Point",
				"coordinates" : [ 16.06806, 53.90556 ]
			},
			"properties" : {
				"LP." : 153,
				"ID" : 253160020,
				"Nazwa" : "OSÓWKO",
				"Województwo" : "zachodniopomorskie",
				"Powiat" : "powiat białogardzki"
			}
		},
		{
			"type" : "Feature",
			"geometry" : {
				"type" : "Point",
				"coordinates" : [ 16.81417, 53.42556 ]
			},
			"properties" : {
				"LP." : 154,
				"ID" : 253160110,
				"Nazwa" : "JASTROWIE",
				"Województwo" : "wielkopolskie",
				"Powiat" : "powiat złotowski"
			}
		},
		{
			"type" : "Feature",
			"geometry" : {
				"type" : "Point",
				"coordinates" : [ 17.84028, 53.70417 ]
			},
			"properties" : {
				"LP." : 155,
				"ID" : 253170060,
				"Nazwa" : "ZAPĘDOWO",
				"Województwo" : "pomorskie",
				"Powiat" : "powiat chojnicki"
			}
		},
		{
			"type" : "Feature",
			"geometry" : {
				"type" : "Point",
				"coordinates" : [ 17.33028, 53.36444 ]
			},
			"properties" : {
				"LP." : 156,
				"ID" : 253170160,
				"Nazwa" : "SYPNIEWO",
				"Województwo" : "kujawsko-pomorskie",
				"Powiat" : "powiat sępoleński"
			}
		},
		{
			"type" : "Feature",
			"geometry" : {
				"type" : "Point",
				"coordinates" : [ 18.54889, 53.98222 ]
			},
			"properties" : {
				"LP." : 157,
				"ID" : 253180040,
				"Nazwa" : "STAROGARD GDAŃSKI",
				"Województwo" : "pomorskie",
				"Powiat" : "powiat starogardzki"
			}
		},
		{
			"type" : "Feature",
			"geometry" : {
				"type" : "Point",
				"coordinates" : [ 18.09278, 53.84056 ]
			},
			"properties" : {
				"LP." : 158,
				"ID" : 253180060,
				"Nazwa" : "CZARNA WODA",
				"Województwo" : "pomorskie",
				"Powiat" : "powiat starogardzki"
			}
		},
		{
			"type" : "Feature",
			"geometry" : {
				"type" : "Point",
				"coordinates" : [ 18.17583, 53.70472 ]
			},
			"properties" : {
				"LP." : 159,
				"ID" : 253180090,
				"Nazwa" : "ŚLIWICE",
				"Województwo" : "kujawsko-pomorskie",
				"Powiat" : "powiat tucholski"
			}
		},
		{
			"type" : "Feature",
			"geometry" : {
				"type" : "Point",
				"coordinates" : [ 18.70944, 53.4375 ]
			},
			"properties" : {
				"LP." : 160,
				"ID" : 253180150,
				"Nazwa" : "GRUDZIĄDZ",
				"Województwo" : "kujawsko-pomorskie",
				"Powiat" : "powiat Grudziądz"
			}
		},
		{
			"type" : "Feature",
			"geometry" : {
				"type" : "Point",
				"coordinates" : [ 18.04583, 53.17361 ]
			},
			"properties" : {
				"LP." : 161,
				"ID" : 253180220,
				"Nazwa" : "BYDGOSZCZ",
				"Województwo" : "kujawsko-pomorskie",
				"Powiat" : "powiat Bydgoszcz"
			}
		},
		{
			"type" : "Feature",
			"geometry" : {
				"type" : "Point",
				"coordinates" : [ 19.82806, 53.90833 ]
			},
			"properties" : {
				"LP." : 162,
				"ID" : 253190030,
				"Nazwa" : "DOBROCIN",
				"Województwo" : "warmińsko-mazurskie",
				"Powiat" : "powiat ostródzki"
			}
		},
		{
			"type" : "Feature",
			"geometry" : {
				"type" : "Point",
				"coordinates" : [ 19.215, 53.73944 ]
			},
			"properties" : {
				"LP." : 163,
				"ID" : 253190070,
				"Nazwa" : "PRABUTY",
				"Województwo" : "pomorskie",
				"Powiat" : "powiat kwidzyński"
			}
		},
		{
			"type" : "Feature",
			"geometry" : {
				"type" : "Point",
				"coordinates" : [ 19.82417, 53.25444 ]
			},
			"properties" : {
				"LP." : 164,
				"ID" : 253190220,
				"Nazwa" : "LIDZBARK",
				"Województwo" : "warmińsko-mazurskie",
				"Powiat" : "powiat działdowski"
			}
		},
		{
			"type" : "Feature",
			"geometry" : {
				"type" : "Point",
				"coordinates" : [ 21.01222, 53.57694 ]
			},
			"properties" : {
				"LP." : 165,
				"ID" : 253210130,
				"Nazwa" : "SZCZYTNO",
				"Województwo" : "warmińsko-mazurskie",
				"Powiat" : "powiat szczycieński"
			}
		},
		{
			"type" : "Feature",
			"geometry" : {
				"type" : "Point",
				"coordinates" : [ 21.37944, 53.49139 ]
			},
			"properties" : {
				"LP." : 166,
				"ID" : 253210170,
				"Nazwa" : "ROZOGI",
				"Województwo" : "warmińsko-mazurskie",
				"Powiat" : "powiat szczycieński"
			}
		},
		{
			"type" : "Feature",
			"geometry" : {
				"type" : "Point",
				"coordinates" : [ 21.35028, 53.38444 ]
			},
			"properties" : {
				"LP." : 167,
				"ID" : 253210210,
				"Nazwa" : "MYSZYNIEC",
				"Województwo" : "mazowieckie",
				"Powiat" : "powiat ostrołęcki"
			}
		},
		{
			"type" : "Feature",
			"geometry" : {
				"type" : "Point",
				"coordinates" : [ 21.8025, 53.1475 ]
			},
			"properties" : {
				"LP." : 168,
				"ID" : 253210260,
				"Nazwa" : "ZARUZIE",
				"Województwo" : "podlaskie",
				"Powiat" : "powiat łomżyński"
			}
		},
		{
			"type" : "Feature",
			"geometry" : {
				"type" : "Point",
				"coordinates" : [ 22.93056, 53.61056 ]
			},
			"properties" : {
				"LP." : 169,
				"ID" : 253220080,
				"Nazwa" : "DĘBOWO",
				"Województwo" : "podlaskie",
				"Powiat" : "powiat augustowski"
			}
		},
		{
			"type" : "Feature",
			"geometry" : {
				"type" : "Point",
				"coordinates" : [ 22.40528, 53.41389 ]
			},
			"properties" : {
				"LP." : 170,
				"ID" : 253220130,
				"Nazwa" : "RADZIŁÓW",
				"Województwo" : "podlaskie",
				"Powiat" : "powiat grajewski"
			}
		},
		{
			"type" : "Feature",
			"geometry" : {
				"type" : "Point",
				"coordinates" : [ 22.45417, 53.27861 ]
			},
			"properties" : {
				"LP." : 171,
				"ID" : 253220160,
				"Nazwa" : "BURZYN",
				"Województwo" : "podlaskie",
				"Powiat" : "powiat łomżyński"
			}
		},
		{
			"type" : "Feature",
			"geometry" : {
				"type" : "Point",
				"coordinates" : [ 22.77056, 53.20444 ]
			},
			"properties" : {
				"LP." : 172,
				"ID" : 253220210,
				"Nazwa" : "TYKOCIN",
				"Województwo" : "podlaskie",
				"Powiat" : "powiat białostocki"
			}
		},
		{
			"type" : "Feature",
			"geometry" : {
				"type" : "Point",
				"coordinates" : [ 22.67333, 53.15694 ]
			},
			"properties" : {
				"LP." : 173,
				"ID" : 253220220,
				"Nazwa" : "ZAWADY",
				"Województwo" : "podlaskie",
				"Powiat" : "powiat białostocki"
			}
		},
		{
			"type" : "Feature",
			"geometry" : {
				"type" : "Point",
				"coordinates" : [ 22.75028, 53.02972 ]
			},
			"properties" : {
				"LP." : 174,
				"ID" : 253220270,
				"Nazwa" : "JABŁONOWO-WYPYCHY",
				"Województwo" : "podlaskie",
				"Powiat" : "powiat wysokomazowiecki"
			}
		},
		{
			"type" : "Feature",
			"geometry" : {
				"type" : "Point",
				"coordinates" : [ 23.40139, 53.63528 ]
			},
			"properties" : {
				"LP." : 175,
				"ID" : 253230020,
				"Nazwa" : "RÓŻANYSTOK",
				"Województwo" : "podlaskie",
				"Powiat" : "powiat sokólski"
			}
		},
		{
			"type" : "Feature",
			"geometry" : {
				"type" : "Point",
				"coordinates" : [ 23.22944, 53.45972 ]
			},
			"properties" : {
				"LP." : 176,
				"ID" : 253230030,
				"Nazwa" : "JANÓW",
				"Województwo" : "podlaskie",
				"Powiat" : "powiat sokólski"
			}
		},
		{
			"type" : "Feature",
			"geometry" : {
				"type" : "Point",
				"coordinates" : [ 23.34056, 53.35389 ]
			},
			"properties" : {
				"LP." : 177,
				"ID" : 253230060,
				"Nazwa" : "JAŁÓWKA",
				"Województwo" : "podlaskie",
				"Powiat" : "powiat sokólski"
			}
		},
		{
			"type" : "Feature",
			"geometry" : {
				"type" : "Point",
				"coordinates" : [ 23.02583, 53.1775 ]
			},
			"properties" : {
				"LP." : 178,
				"ID" : 253230110,
				"Nazwa" : "FASTY",
				"Województwo" : "podlaskie",
				"Powiat" : "powiat białostocki"
			}
		},
		{
			"type" : "Feature",
			"geometry" : {
				"type" : "Point",
				"coordinates" : [ 18.8525, 49.71972 ]
			},
			"properties" : {
				"LP." : 179,
				"ID" : 249180180,
				"Nazwa" : "USTROŃ-RÓWNICA-WIEŚ",
				"Województwo" : "śląskie",
				"Powiat" : "powiat cieszyński"
			}
		},
		{
			"type" : "Feature",
			"geometry" : {
				"type" : "Point",
				"coordinates" : [ 19.99222, 49.65333 ]
			},
			"properties" : {
				"LP." : 180,
				"ID" : 249190320,
				"Nazwa" : "LUBOŃ WIELKI",
				"Województwo" : "małopolskie",
				"Powiat" : "powiat myślenicki"
			}
		},
		{
			"type" : "Feature",
			"geometry" : {
				"type" : "Point",
				"coordinates" : [ 20.49528, 49.96528 ]
			},
			"properties" : {
				"LP." : 181,
				"ID" : 249200020,
				"Nazwa" : "ŁAZY",
				"Województwo" : "małopolskie",
				"Powiat" : "powiat bocheński"
			}
		},
		{
			"type" : "Feature",
			"geometry" : {
				"type" : "Point",
				"coordinates" : [ 16.09861, 50.925 ]
			},
			"properties" : {
				"LP." : 182,
				"ID" : 250160030,
				"Nazwa" : "BOLKÓW",
				"Województwo" : "dolnośląskie",
				"Powiat" : "powiat jaworski"
			}
		},
		{
			"type" : "Feature",
			"geometry" : {
				"type" : "Point",
				"coordinates" : [ 16.88417, 50.22722 ]
			},
			"properties" : {
				"LP." : 183,
				"ID" : 250160620,
				"Nazwa" : "KAMIENICA",
				"Województwo" : "dolnośląskie",
				"Powiat" : "powiat kłodzki"
			}
		},
		{
			"type" : "Feature",
			"geometry" : {
				"type" : "Point",
				"coordinates" : [ 20.92583, 51.32389 ]
			},
			"properties" : {
				"LP." : 184,
				"ID" : 251200150,
				"Nazwa" : "ŁAZISKA",
				"Województwo" : "mazowieckie",
				"Powiat" : "powiat szydłowiecki"
			}
		},
		{
			"type" : "Feature",
			"geometry" : {
				"type" : "Point",
				"coordinates" : [ 21.72389, 52.03722 ]
			},
			"properties" : {
				"LP." : 185,
				"ID" : 252210240,
				"Nazwa" : "WIELGOLAS",
				"Województwo" : "mazowieckie",
				"Powiat" : "powiat miński"
			}
		},
		{
			"type" : "Feature",
			"geometry" : {
				"type" : "Point",
				"coordinates" : [ 20.04694, 49.49083 ]
			},
			"properties" : {
				"LP." : 186,
				"ID" : 249200310,
				"Nazwa" : "KOWANIEC",
				"Województwo" : "małopolskie",
				"Powiat" : "powiat nowotarski"
			}
		},
		{
			"type" : "Feature",
			"geometry" : {
				"type" : "Point",
				"coordinates" : [ 21.53333, 49.61167 ]
			},
			"properties" : {
				"LP." : 187,
				"ID" : 249210120,
				"Nazwa" : "NOWY ŻMIGRÓD",
				"Województwo" : "podkarpackie",
				"Powiat" : "powiat jasielski"
			}
		},
		{
			"type" : "Feature",
			"geometry" : {
				"type" : "Point",
				"coordinates" : [ 21.86556, 49.50083 ]
			},
			"properties" : {
				"LP." : 188,
				"ID" : 249210190,
				"Nazwa" : "WISŁOCZEK",
				"Województwo" : "podkarpackie",
				"Powiat" : "powiat krośnieński"
			}
		},
		{
			"type" : "Feature",
			"geometry" : {
				"type" : "Point",
				"coordinates" : [ 22.27167, 49.20889 ]
			},
			"properties" : {
				"LP." : 189,
				"ID" : 249220240,
				"Nazwa" : "ŻUBRACZE",
				"Województwo" : "podkarpackie",
				"Powiat" : "powiat leski"
			}
		},
		{
			"type" : "Feature",
			"geometry" : {
				"type" : "Point",
				"coordinates" : [ 19.74694, 54.42611 ]
			},
			"properties" : {
				"LP." : 190,
				"ID" : 254190020,
				"Nazwa" : "NOWA PASŁĘKA",
				"Województwo" : "warmińsko-mazurskie",
				"Powiat" : "powiat braniewski"
			}
		},
		{
			"type" : "Feature",
			"geometry" : {
				"type" : "Point",
				"coordinates" : [ 22.03806, 54.32139 ]
			},
			"properties" : {
				"LP." : 191,
				"ID" : 254220020,
				"Nazwa" : "ŻABIN",
				"Województwo" : "warmińsko-mazurskie",
				"Powiat" : "powiat gołdapski"
			}
		},
		{
			"type" : "Feature",
			"geometry" : {
				"type" : "Point",
				"coordinates" : [ 22.26861, 54.30833 ]
			},
			"properties" : {
				"LP." : 192,
				"ID" : 254220030,
				"Nazwa" : "GOŁDAP",
				"Województwo" : "warmińsko-mazurskie",
				"Powiat" : "powiat gołdapski"
			}
		},
		{
			"type" : "Feature",
			"geometry" : {
				"type" : "Point",
				"coordinates" : [ 22.02306, 54.25167 ]
			},
			"properties" : {
				"LP." : 193,
				"ID" : 254220060,
				"Nazwa" : "BANIE MAZURSKIE",
				"Województwo" : "warmińsko-mazurskie",
				"Powiat" : "powiat gołdapski"
			}
		},
		{
			"type" : "Feature",
			"geometry" : {
				"type" : "Point",
				"coordinates" : [ 19.98194, 49.2325 ]
			},
			"properties" : {
				"LP." : 194,
				"ID" : 349190650,
				"Nazwa" : "KASPROWY WIERCH",
				"Województwo" : "małopolskie",
				"Powiat" : "powiat tatrzański"
			}
		},
		{
			"type" : "Feature",
			"geometry" : {
				"type" : "Point",
				"coordinates" : [ 20.68861, 49.62722 ]
			},
			"properties" : {
				"LP." : 195,
				"ID" : 349200660,
				"Nazwa" : "NOWY SĄCZ",
				"Województwo" : "małopolskie",
				"Powiat" : "powiat Nowy Sącz"
			}
		},
		{
			"type" : "Feature",
			"geometry" : {
				"type" : "Point",
				"coordinates" : [ 21.76917, 49.70667 ]
			},
			"properties" : {
				"LP." : 196,
				"ID" : 349210670,
				"Nazwa" : "KROSNO",
				"Województwo" : "podkarpackie",
				"Powiat" : "powiat Krosno"
			}
		},
		{
			"type" : "Feature",
			"geometry" : {
				"type" : "Point",
				"coordinates" : [ 22.34167, 49.46639 ]
			},
			"properties" : {
				"LP." : 197,
				"ID" : 349220690,
				"Nazwa" : "LESKO",
				"Województwo" : "podkarpackie",
				"Powiat" : "powiat leski"
			}
		},
		{
			"type" : "Feature",
			"geometry" : {
				"type" : "Point",
				"coordinates" : [ 22.77194, 49.80417 ]
			},
			"properties" : {
				"LP." : 198,
				"ID" : 349220695,
				"Nazwa" : "PRZEMYŚL",
				"Województwo" : "podkarpackie",
				"Powiat" : "powiat Przemyśl"
			}
		},
		{
			"type" : "Feature",
			"geometry" : {
				"type" : "Point",
				"coordinates" : [ 19.09167, 50.81194 ]
			},
			"properties" : {
				"LP." : 199,
				"ID" : 350190550,
				"Nazwa" : "CZĘSTOCHOWA",
				"Województwo" : "śląskie",
				"Powiat" : "powiat Częstochowa"
			}
		},
		{
			"type" : "Feature",
			"geometry" : {
				"type" : "Point",
				"coordinates" : [ 19.03278, 50.24056 ]
			},
			"properties" : {
				"LP." : 200,
				"ID" : 350190560,
				"Nazwa" : "KATOWICE-MUCHOWIEC",
				"Województwo" : "śląskie",
				"Powiat" : "powiat Katowice"
			}
		},
		{
			"type" : "Feature",
			"geometry" : {
				"type" : "Point",
				"coordinates" : [ 20.69222, 50.81056 ]
			},
			"properties" : {
				"LP." : 201,
				"ID" : 350200570,
				"Nazwa" : "KIELCE-SUKÓW",
				"Województwo" : "świętokrzyskie",
				"Powiat" : "powiat kielecki"
			}
		},
		{
			"type" : "Feature",
			"geometry" : {
				"type" : "Point",
				"coordinates" : [ 20.98389, 50.03 ]
			},
			"properties" : {
				"LP." : 202,
				"ID" : 350200575,
				"Nazwa" : "TARNÓW",
				"Województwo" : "małopolskie",
				"Powiat" : "powiat Tarnów"
			}
		},
		{
			"type" : "Feature",
			"geometry" : {
				"type" : "Point",
				"coordinates" : [ 21.71583, 50.69667 ]
			},
			"properties" : {
				"LP." : 203,
				"ID" : 350210585,
				"Nazwa" : "SANDOMIERZ",
				"Województwo" : "świętokrzyskie",
				"Powiat" : "powiat sandomierski"
			}
		},
		{
			"type" : "Feature",
			"geometry" : {
				"type" : "Point",
				"coordinates" : [ 22.04222, 50.11083 ]
			},
			"properties" : {
				"LP." : 204,
				"ID" : 350220580,
				"Nazwa" : "RZESZÓW-JASIONKA",
				"Województwo" : "podkarpackie",
				"Powiat" : "powiat rzeszowski"
			}
		},
		{
			"type" : "Feature",
			"geometry" : {
				"type" : "Point",
				"coordinates" : [ 23.20556, 50.69833 ]
			},
			"properties" : {
				"LP." : 205,
				"ID" : 350230595,
				"Nazwa" : "ZAMOŚĆ",
				"Województwo" : "lubelskie",
				"Powiat" : "powiat zamojski"
			}
		},
		{
			"type" : "Feature",
			"geometry" : {
				"type" : "Point",
				"coordinates" : [ 19.86639, 51.35333 ]
			},
			"properties" : {
				"LP." : 206,
				"ID" : 351190469,
				"Nazwa" : "SULEJÓW",
				"Województwo" : "łódzkie",
				"Powiat" : "powiat piotrkowski"
			}
		},
		{
			"type" : "Feature",
			"geometry" : {
				"type" : "Point",
				"coordinates" : [ 21.54361, 51.56472 ]
			},
			"properties" : {
				"LP." : 207,
				"ID" : 351210488,
				"Nazwa" : "KOZIENICE",
				"Województwo" : "mazowieckie",
				"Powiat" : "powiat kozienicki"
			}
		},
		{
			"type" : "Feature",
			"geometry" : {
				"type" : "Point",
				"coordinates" : [ 23.52944, 51.55333 ]
			},
			"properties" : {
				"LP." : 208,
				"ID" : 351230497,
				"Nazwa" : "WŁODAWA",
				"Województwo" : "lubelskie",
				"Powiat" : "powiat włodawski"
			}
		},
		{
			"type" : "Feature",
			"geometry" : {
				"type" : "Point",
				"coordinates" : [ 19.72583, 52.58833 ]
			},
			"properties" : {
				"LP." : 209,
				"ID" : 352190360,
				"Nazwa" : "PŁOCK",
				"Województwo" : "mazowieckie",
				"Powiat" : "powiat płocki"
			}
		},
		{
			"type" : "Feature",
			"geometry" : {
				"type" : "Point",
				"coordinates" : [ 22.24472, 52.18111 ]
			},
			"properties" : {
				"LP." : 210,
				"ID" : 352220385,
				"Nazwa" : "SIEDLCE",
				"Województwo" : "mazowieckie",
				"Powiat" : "powiat Siedlce"
			}
		},
		{
			"type" : "Feature",
			"geometry" : {
				"type" : "Point",
				"coordinates" : [ 14.62278, 53.39528 ]
			},
			"properties" : {
				"LP." : 211,
				"ID" : 353140205,
				"Nazwa" : "SZCZECIN",
				"Województwo" : "zachodniopomorskie",
				"Powiat" : "powiat Szczecin"
			}
		},
		{
			"type" : "Feature",
			"geometry" : {
				"type" : "Point",
				"coordinates" : [ 15.39333, 53.76361 ]
			},
			"properties" : {
				"LP." : 212,
				"ID" : 353150210,
				"Nazwa" : "RESKO-SMÓLSKO",
				"Województwo" : "zachodniopomorskie",
				"Powiat" : "powiat łobeski"
			}
		},
		{
			"type" : "Feature",
			"geometry" : {
				"type" : "Point",
				"coordinates" : [ 18.59556, 53.04194 ]
			},
			"properties" : {
				"LP." : 213,
				"ID" : 353180250,
				"Nazwa" : "TORUŃ",
				"Województwo" : "kujawsko-pomorskie",
				"Powiat" : "powiat Toruń"
			}
		},
		{
			"type" : "Feature",
			"geometry" : {
				"type" : "Point",
				"coordinates" : [ 20.36111, 53.10417 ]
			},
			"properties" : {
				"LP." : 214,
				"ID" : 353200270,
				"Nazwa" : "MŁAWA",
				"Województwo" : "mazowieckie",
				"Powiat" : "powiat mławski"
			}
		},
		{
			"type" : "Feature",
			"geometry" : {
				"type" : "Point",
				"coordinates" : [ 20.42139, 53.76861 ]
			},
			"properties" : {
				"LP." : 215,
				"ID" : 353200272,
				"Nazwa" : "OLSZTYN",
				"Województwo" : "warmińsko-mazurskie",
				"Powiat" : "powiat Olsztyn"
			}
		},
		{
			"type" : "Feature",
			"geometry" : {
				"type" : "Point",
				"coordinates" : [ 21.53389, 53.06583 ]
			},
			"properties" : {
				"LP." : 216,
				"ID" : 353210285,
				"Nazwa" : "OSTROŁĘKA",
				"Województwo" : "mazowieckie",
				"Powiat" : "powiat ostrołęcki"
			}
		},
		{
			"type" : "Feature",
			"geometry" : {
				"type" : "Point",
				"coordinates" : [ 23.16222, 53.10722 ]
			},
			"properties" : {
				"LP." : 217,
				"ID" : 353230295,
				"Nazwa" : "BIAŁYSTOK",
				"Województwo" : "podlaskie",
				"Powiat" : "powiat Białystok"
			}
		},
		{
			"type" : "Feature",
			"geometry" : {
				"type" : "Point",
				"coordinates" : [ 15.38889, 54.15833 ]
			},
			"properties" : {
				"LP." : 218,
				"ID" : 354150100,
				"Nazwa" : "KOŁOBRZEG-DŹWIRZYNO",
				"Województwo" : "zachodniopomorskie",
				"Powiat" : "powiat kołobrzeski"
			}
		},
		{
			"type" : "Feature",
			"geometry" : {
				"type" : "Point",
				"coordinates" : [ 16.85417, 54.58833 ]
			},
			"properties" : {
				"LP." : 219,
				"ID" : 354160115,
				"Nazwa" : "USTKA",
				"Województwo" : "pomorskie",
				"Powiat" : "powiat słupski"
			}
		},
		{
			"type" : "Feature",
			"geometry" : {
				"type" : "Point",
				"coordinates" : [ 17.75694, 54.55306 ]
			},
			"properties" : {
				"LP." : 220,
				"ID" : 354170125,
				"Nazwa" : "LĘBORK",
				"Województwo" : "pomorskie",
				"Powiat" : "powiat lęborski"
			}
		},
		{
			"type" : "Feature",
			"geometry" : {
				"type" : "Point",
				"coordinates" : [ 18.81194, 54.60361 ]
			},
			"properties" : {
				"LP." : 221,
				"ID" : 354180135,
				"Nazwa" : "HEL",
				"Województwo" : "pomorskie",
				"Powiat" : "powiat pucki"
			}
		},
		{
			"type" : "Feature",
			"geometry" : {
				"type" : "Point",
				"coordinates" : [ 21.36667, 54.06722 ]
			},
			"properties" : {
				"LP." : 222,
				"ID" : 354210185,
				"Nazwa" : "KĘTRZYN",
				"Województwo" : "warmińsko-mazurskie",
				"Powiat" : "powiat kętrzyński"
			}
		},
		{
			"type" : "Feature",
			"geometry" : {
				"type" : "Point",
				"coordinates" : [ 19.37028, 50.54528 ]
			},
			"properties" : {
				"LP." : 223,
				"ID" : 250190170,
				"Nazwa" : "KRĘCIWILK",
				"Województwo" : "śląskie",
				"Powiat" : "powiat myszkowski"
			}
		},
		{
			"type" : "Feature",
			"geometry" : {
				"type" : "Point",
				"coordinates" : [ 19.38417, 50.43083 ]
			},
			"properties" : {
				"LP." : 224,
				"ID" : 250190220,
				"Nazwa" : "ŁAZY",
				"Województwo" : "śląskie",
				"Powiat" : "powiat zawierciański"
			}
		},
		{
			"type" : "Feature",
			"geometry" : {
				"type" : "Point",
				"coordinates" : [ 19.60361, 50.27694 ]
			},
			"properties" : {
				"LP." : 225,
				"ID" : 250190290,
				"Nazwa" : "OLEWIN",
				"Województwo" : "małopolskie",
				"Powiat" : "powiat olkuski"
			}
		},
		{
			"type" : "Feature",
			"geometry" : {
				"type" : "Point",
				"coordinates" : [ 19.26278, 50.25861 ]
			},
			"properties" : {
				"LP." : 226,
				"ID" : 250190310,
				"Nazwa" : "MACZKI",
				"Województwo" : "śląskie",
				"Powiat" : "powiat Sosnowiec"
			}
		},
		{
			"type" : "Feature",
			"geometry" : {
				"type" : "Point",
				"coordinates" : [ 20.64972, 50.97861 ]
			},
			"properties" : {
				"LP." : 227,
				"ID" : 250200010,
				"Nazwa" : "BARTKÓW",
				"Województwo" : "świętokrzyskie",
				"Powiat" : "powiat kielecki"
			}
		},
		{
			"type" : "Feature",
			"geometry" : {
				"type" : "Point",
				"coordinates" : [ 20.95139, 50.94694 ]
			},
			"properties" : {
				"LP." : 228,
				"ID" : 250200040,
				"Nazwa" : "BODZENTYN",
				"Województwo" : "świętokrzyskie",
				"Powiat" : "powiat kielecki"
			}
		},
		{
			"type" : "Feature",
			"geometry" : {
				"type" : "Point",
				"coordinates" : [ 20.90278, 50.75861 ]
			},
			"properties" : {
				"LP." : 229,
				"ID" : 250200110,
				"Nazwa" : "CISÓW",
				"Województwo" : "świętokrzyskie",
				"Powiat" : "powiat kielecki"
			}
		},
		{
			"type" : "Feature",
			"geometry" : {
				"type" : "Point",
				"coordinates" : [ 20.52472, 50.6125 ]
			},
			"properties" : {
				"LP." : 230,
				"ID" : 250200130,
				"Nazwa" : "KLISZÓW",
				"Województwo" : "świętokrzyskie",
				"Powiat" : "powiat pińczowski"
			}
		},
		{
			"type" : "Feature",
			"geometry" : {
				"type" : "Point",
				"coordinates" : [ 20.03278, 50.36278 ]
			},
			"properties" : {
				"LP." : 231,
				"ID" : 250200210,
				"Nazwa" : "MIECHÓW",
				"Województwo" : "małopolskie",
				"Powiat" : "powiat miechowski"
			}
		},
		{
			"type" : "Feature",
			"geometry" : {
				"type" : "Point",
				"coordinates" : [ 20.78694, 50.27778 ]
			},
			"properties" : {
				"LP." : 232,
				"ID" : 250200230,
				"Nazwa" : "BORUSOWA",
				"Województwo" : "małopolskie",
				"Powiat" : "powiat dąbrowski"
			}
		},
		{
			"type" : "Feature",
			"geometry" : {
				"type" : "Point",
				"coordinates" : [ 20.23083, 50.25333 ]
			},
			"properties" : {
				"LP." : 233,
				"ID" : 250200250,
				"Nazwa" : "RADZIEMICE",
				"Województwo" : "małopolskie",
				"Powiat" : "powiat proszowicki"
			}
		},
		{
			"type" : "Feature",
			"geometry" : {
				"type" : "Point",
				"coordinates" : [ 20.25639, 50.09361 ]
			},
			"properties" : {
				"LP." : 234,
				"ID" : 250200280,
				"Nazwa" : "IGOŁOMIA",
				"Województwo" : "małopolskie",
				"Powiat" : "powiat krakowski"
			}
		},
		{
			"type" : "Feature",
			"geometry" : {
				"type" : "Point",
				"coordinates" : [ 20.71, 50.06583 ]
			},
			"properties" : {
				"LP." : 235,
				"ID" : 250200290,
				"Nazwa" : "BORZĘCIN",
				"Województwo" : "małopolskie",
				"Powiat" : "powiat brzeski"
			}
		},
		{
			"type" : "Feature",
			"geometry" : {
				"type" : "Point",
				"coordinates" : [ 21.21917, 50.91917 ]
			},
			"properties" : {
				"LP." : 236,
				"ID" : 250210020,
				"Nazwa" : "NOSÓW",
				"Województwo" : "świętokrzyskie",
				"Powiat" : "powiat ostrowiecki"
			}
		},
		{
			"type" : "Feature",
			"geometry" : {
				"type" : "Point",
				"coordinates" : [ 21.83417, 50.88944 ]
			},
			"properties" : {
				"LP." : 237,
				"ID" : 250210030,
				"Nazwa" : "ANNOPOL",
				"Województwo" : "lubelskie",
				"Powiat" : "powiat kraśnicki"
			}
		},
		{
			"type" : "Feature",
			"geometry" : {
				"type" : "Point",
				"coordinates" : [ 21.25528, 50.77028 ]
			},
			"properties" : {
				"LP." : 238,
				"ID" : 250210070,
				"Nazwa" : "BARANÓWEK",
				"Województwo" : "świętokrzyskie",
				"Powiat" : "powiat opatowski"
			}
		},
		{
			"type" : "Feature",
			"geometry" : {
				"type" : "Point",
				"coordinates" : [ 21.07722, 50.73667 ]
			},
			"properties" : {
				"LP." : 239,
				"ID" : 250210080,
				"Nazwa" : "SADKÓW",
				"Województwo" : "świętokrzyskie",
				"Powiat" : "powiat kielecki"
			}
		},
		{
			"type" : "Feature",
			"geometry" : {
				"type" : "Point",
				"coordinates" : [ 21.18694, 50.72472 ]
			},
			"properties" : {
				"LP." : 240,
				"ID" : 250210090,
				"Nazwa" : "JASTRZĘBSKA WOLA",
				"Województwo" : "świętokrzyskie",
				"Powiat" : "powiat opatowski"
			}
		},
		{
			"type" : "Feature",
			"geometry" : {
				"type" : "Point",
				"coordinates" : [ 21.185, 50.595 ]
			},
			"properties" : {
				"LP." : 241,
				"ID" : 250210130,
				"Nazwa" : "STASZÓW",
				"Województwo" : "świętokrzyskie",
				"Powiat" : "powiat staszowski"
			}
		},
		{
			"type" : "Feature",
			"geometry" : {
				"type" : "Point",
				"coordinates" : [ 21.75194, 50.36667 ]
			},
			"properties" : {
				"LP." : 242,
				"ID" : 250210160,
				"Nazwa" : "MAJDAN KRÓLEWSKI",
				"Województwo" : "podkarpackie",
				"Powiat" : "powiat kolbuszowski"
			}
		},
		{
			"type" : "Feature",
			"geometry" : {
				"type" : "Point",
				"coordinates" : [ 21.93194, 50.34139 ]
			},
			"properties" : {
				"LP." : 243,
				"ID" : 250210170,
				"Nazwa" : "WILCZA WOLA",
				"Województwo" : "podkarpackie",
				"Powiat" : "powiat kolbuszowski"
			}
		},
		{
			"type" : "Feature",
			"geometry" : {
				"type" : "Point",
				"coordinates" : [ 21.43278, 50.27944 ]
			},
			"properties" : {
				"LP." : 244,
				"ID" : 250210210,
				"Nazwa" : "MIELEC",
				"Województwo" : "podkarpackie",
				"Powiat" : "powiat mielecki"
			}
		},
		{
			"type" : "Feature",
			"geometry" : {
				"type" : "Point",
				"coordinates" : [ 21.74583, 50.26222 ]
			},
			"properties" : {
				"LP." : 245,
				"ID" : 250210220,
				"Nazwa" : "KOLBUSZOWA",
				"Województwo" : "podkarpackie",
				"Powiat" : "powiat kolbuszowski"
			}
		},
		{
			"type" : "Feature",
			"geometry" : {
				"type" : "Point",
				"coordinates" : [ 21.26972, 50.19972 ]
			},
			"properties" : {
				"LP." : 246,
				"ID" : 250210230,
				"Nazwa" : "RADOMYŚL WIELKI",
				"Województwo" : "podkarpackie",
				"Powiat" : "powiat mielecki"
			}
		},
		{
			"type" : "Feature",
			"geometry" : {
				"type" : "Point",
				"coordinates" : [ 21.49333, 50.06389 ]
			},
			"properties" : {
				"LP." : 247,
				"ID" : 250210240,
				"Nazwa" : "ZAWADA",
				"Województwo" : "podkarpackie",
				"Powiat" : "powiat dębicki"
			}
		},
		{
			"type" : "Feature",
			"geometry" : {
				"type" : "Point",
				"coordinates" : [ 22.66694, 50.91778 ]
			},
			"properties" : {
				"LP." : 248,
				"ID" : 250220030,
				"Nazwa" : "WYSOKIE",
				"Województwo" : "lubelskie",
				"Powiat" : "powiat lubelski"
			}
		},
		{
			"type" : "Feature",
			"geometry" : {
				"type" : "Point",
				"coordinates" : [ 22.86139, 50.7575 ]
			},
			"properties" : {
				"LP." : 249,
				"ID" : 250220050,
				"Nazwa" : "ZAKŁODZIE",
				"Województwo" : "lubelskie",
				"Powiat" : "powiat zamojski"
			}
		},
		{
			"type" : "Feature",
			"geometry" : {
				"type" : "Point",
				"coordinates" : [ 22.66611, 50.675 ]
			},
			"properties" : {
				"LP." : 250,
				"ID" : 250220080,
				"Nazwa" : "FRAMPOL",
				"Województwo" : "lubelskie",
				"Powiat" : "powiat biłgorajski"
			}
		},
		{
			"type" : "Feature",
			"geometry" : {
				"type" : "Point",
				"coordinates" : [ 22.30667, 50.56861 ]
			},
			"properties" : {
				"LP." : 251,
				"ID" : 250220120,
				"Nazwa" : "JAROCIN",
				"Województwo" : "podkarpackie",
				"Powiat" : "powiat niżański"
			}
		},
		{
			"type" : "Feature",
			"geometry" : {
				"type" : "Point",
				"coordinates" : [ 22.79, 50.50667 ]
			},
			"properties" : {
				"LP." : 252,
				"ID" : 250220130,
				"Nazwa" : "BRODZIAKI",
				"Województwo" : "lubelskie",
				"Powiat" : "powiat biłgorajski"
			}
		},
		{
			"type" : "Feature",
			"geometry" : {
				"type" : "Point",
				"coordinates" : [ 22.75667, 50.35667 ]
			},
			"properties" : {
				"LP." : 253,
				"ID" : 250220140,
				"Nazwa" : "TARNOGRÓD",
				"Województwo" : "lubelskie",
				"Powiat" : "powiat biłgorajski"
			}
		},
		{
			"type" : "Feature",
			"geometry" : {
				"type" : "Point",
				"coordinates" : [ 22.69639, 50.01833 ]
			},
			"properties" : {
				"LP." : 254,
				"ID" : 250220210,
				"Nazwa" : "JAROSŁAW",
				"Województwo" : "podkarpackie",
				"Powiat" : "powiat jarosławski"
			}
		},
		{
			"type" : "Feature",
			"geometry" : {
				"type" : "Point",
				"coordinates" : [ 23.03861, 50.805 ]
			},
			"properties" : {
				"LP." : 255,
				"ID" : 250230020,
				"Nazwa" : "NIELISZ",
				"Województwo" : "lubelskie",
				"Powiat" : "powiat zamojski"
			}
		},
		{
			"type" : "Feature",
			"geometry" : {
				"type" : "Point",
				"coordinates" : [ 23.05833, 50.4875 ]
			},
			"properties" : {
				"LP." : 256,
				"ID" : 250230060,
				"Nazwa" : "JÓZEFÓW",
				"Województwo" : "lubelskie",
				"Powiat" : "powiat biłgorajski"
			}
		},
		{
			"type" : "Feature",
			"geometry" : {
				"type" : "Point",
				"coordinates" : [ 23.15833, 50.01778 ]
			},
			"properties" : {
				"LP." : 257,
				"ID" : 250230140,
				"Nazwa" : "WIELKIE OCZY",
				"Województwo" : "podkarpackie",
				"Powiat" : "powiat lubaczowski"
			}
		},
		{
			"type" : "Feature",
			"geometry" : {
				"type" : "Point",
				"coordinates" : [ 24.03556, 50.84 ]
			},
			"properties" : {
				"LP." : 258,
				"ID" : 250240010,
				"Nazwa" : "STRZYŻÓW",
				"Województwo" : "lubelskie",
				"Powiat" : "powiat hrubieszowski"
			}
		},
		{
			"type" : "Feature",
			"geometry" : {
				"type" : "Point",
				"coordinates" : [ 14.975, 51.38833 ]
			},
			"properties" : {
				"LP." : 259,
				"ID" : 251140060,
				"Nazwa" : "SOBOLICE",
				"Województwo" : "lubuskie",
				"Powiat" : "powiat żarski"
			}
		},
		{
			"type" : "Feature",
			"geometry" : {
				"type" : "Point",
				"coordinates" : [ 15.7475, 51.09056 ]
			},
			"properties" : {
				"LP." : 260,
				"ID" : 251150280,
				"Nazwa" : "TWARDOCICE",
				"Województwo" : "dolnośląskie",
				"Powiat" : "powiat złotoryjski"
			}
		},
		{
			"type" : "Feature",
			"geometry" : {
				"type" : "Point",
				"coordinates" : [ 15.065, 51.07694 ]
			},
			"properties" : {
				"LP." : 261,
				"ID" : 251150290,
				"Nazwa" : "SULIKÓW",
				"Województwo" : "dolnośląskie",
				"Powiat" : "powiat zgorzelecki"
			}
		},
		{
			"type" : "Feature",
			"geometry" : {
				"type" : "Point",
				"coordinates" : [ 15.11639, 51.03889 ]
			},
			"properties" : {
				"LP." : 262,
				"ID" : 251150320,
				"Nazwa" : "BIERNA",
				"Województwo" : "dolnośląskie",
				"Powiat" : "powiat zgorzelecki"
			}
		},
		{
			"type" : "Feature",
			"geometry" : {
				"type" : "Point",
				"coordinates" : [ 15.90278, 51.01306 ]
			},
			"properties" : {
				"LP." : 263,
				"ID" : 251150360,
				"Nazwa" : "ŚWIERZAWA",
				"Województwo" : "dolnośląskie",
				"Powiat" : "powiat złotoryjski"
			}
		},
		{
			"type" : "Feature",
			"geometry" : {
				"type" : "Point",
				"coordinates" : [ 16.46417, 51.63194 ]
			},
			"properties" : {
				"LP." : 264,
				"ID" : 251160110,
				"Nazwa" : "OSETNO",
				"Województwo" : "dolnośląskie",
				"Powiat" : "powiat górowski"
			}
		},
		{
			"type" : "Feature",
			"geometry" : {
				"type" : "Point",
				"coordinates" : [ 16.05611, 51.50056 ]
			},
			"properties" : {
				"LP." : 265,
				"ID" : 251160150,
				"Nazwa" : "POLKOWICE DOLNE",
				"Województwo" : "dolnośląskie",
				"Powiat" : "powiat polkowicki"
			}
		},
		{
			"type" : "Feature",
			"geometry" : {
				"type" : "Point",
				"coordinates" : [ 16.61306, 51.44833 ]
			},
			"properties" : {
				"LP." : 266,
				"ID" : 251160170,
				"Nazwa" : "CHWAŁKOWICE",
				"Województwo" : "dolnośląskie",
				"Powiat" : "powiat wołowski"
			}
		},
		{
			"type" : "Feature",
			"geometry" : {
				"type" : "Point",
				"coordinates" : [ 16.93056, 51.28944 ]
			},
			"properties" : {
				"LP." : 267,
				"ID" : 251160220,
				"Nazwa" : "OBORNIKI ŚLĄSKIE",
				"Województwo" : "dolnośląskie",
				"Powiat" : "powiat trzebnicki"
			}
		},
		{
			"type" : "Feature",
			"geometry" : {
				"type" : "Point",
				"coordinates" : [ 16.18361, 51.06333 ]
			},
			"properties" : {
				"LP." : 268,
				"ID" : 251160290,
				"Nazwa" : "JAWOR",
				"Województwo" : "dolnośląskie",
				"Powiat" : "powiat jaworski"
			}
		},
		{
			"type" : "Feature",
			"geometry" : {
				"type" : "Point",
				"coordinates" : [ 17.55333, 51.94556 ]
			},
			"properties" : {
				"LP." : 269,
				"ID" : 251170030,
				"Nazwa" : "WITASZYCE",
				"Województwo" : "wielkopolskie",
				"Powiat" : "powiat jarociński"
			}
		},
		{
			"type" : "Feature",
			"geometry" : {
				"type" : "Point",
				"coordinates" : [ 17.27722, 51.51111 ]
			},
			"properties" : {
				"LP." : 270,
				"ID" : 251170140,
				"Nazwa" : "MILICZ",
				"Województwo" : "dolnośląskie",
				"Powiat" : "powiat milicki"
			}
		},
		{
			"type" : "Feature",
			"geometry" : {
				"type" : "Point",
				"coordinates" : [ 17.06806, 51.32278 ]
			},
			"properties" : {
				"LP." : 271,
				"ID" : 251170210,
				"Nazwa" : "TRZEBNICA",
				"Województwo" : "dolnośląskie",
				"Powiat" : "powiat trzebnicki"
			}
		},
		{
			"type" : "Feature",
			"geometry" : {
				"type" : "Point",
				"coordinates" : [ 17.54472, 51.11889 ]
			},
			"properties" : {
				"LP." : 272,
				"ID" : 251170270,
				"Nazwa" : "BIERUTÓW",
				"Województwo" : "dolnośląskie",
				"Powiat" : "powiat oleśnicki"
			}
		},
		{
			"type" : "Feature",
			"geometry" : {
				"type" : "Point",
				"coordinates" : [ 17.71583, 51.06583 ]
			},
			"properties" : {
				"LP." : 273,
				"ID" : 251170290,
				"Nazwa" : "NAMYSŁÓW",
				"Województwo" : "opolskie",
				"Powiat" : "powiat namysłowski"
			}
		},
		{
			"type" : "Feature",
			"geometry" : {
				"type" : "Point",
				"coordinates" : [ 18.15028, 51.94333 ]
			},
			"properties" : {
				"LP." : 274,
				"ID" : 251180020,
				"Nazwa" : "ZBIERSK",
				"Województwo" : "wielkopolskie",
				"Powiat" : "powiat kaliski"
			}
		},
		{
			"type" : "Feature",
			"geometry" : {
				"type" : "Point",
				"coordinates" : [ 18.95972, 51.88556 ]
			},
			"properties" : {
				"LP." : 275,
				"ID" : 251180040,
				"Nazwa" : "PODDĘBICE",
				"Województwo" : "łódzkie",
				"Powiat" : "powiat poddębicki"
			}
		},
		{
			"type" : "Feature",
			"geometry" : {
				"type" : "Point",
				"coordinates" : [ 18.41, 51.83528 ]
			},
			"properties" : {
				"LP." : 276,
				"ID" : 251180050,
				"Nazwa" : "LISKÓW",
				"Województwo" : "wielkopolskie",
				"Powiat" : "powiat kaliski"
			}
		},
		{
			"type" : "Feature",
			"geometry" : {
				"type" : "Point",
				"coordinates" : [ 18.59917, 51.42111 ]
			},
			"properties" : {
				"LP." : 277,
				"ID" : 251180140,
				"Nazwa" : "ZŁOCZEW",
				"Województwo" : "łódzkie",
				"Powiat" : "powiat sieradzki"
			}
		},
		{
			"type" : "Feature",
			"geometry" : {
				"type" : "Point",
				"coordinates" : [ 18.14306, 51.18278 ]
			},
			"properties" : {
				"LP." : 278,
				"ID" : 251180190,
				"Nazwa" : "SIEMIANICE",
				"Województwo" : "wielkopolskie",
				"Powiat" : "powiat kępiński"
			}
		},
		{
			"type" : "Feature",
			"geometry" : {
				"type" : "Point",
				"coordinates" : [ 19.60194, 51.20361 ]
			},
			"properties" : {
				"LP." : 279,
				"ID" : 251190140,
				"Nazwa" : "PLUCICE",
				"Województwo" : "łódzkie",
				"Powiat" : "powiat piotrkowski"
			}
		},
		{
			"type" : "Feature",
			"geometry" : {
				"type" : "Point",
				"coordinates" : [ 19.87528, 51.09056 ]
			},
			"properties" : {
				"LP." : 280,
				"ID" : 251190160,
				"Nazwa" : "PRZEDBÓRZ",
				"Województwo" : "łódzkie",
				"Powiat" : "powiat radomszczański"
			}
		},
		{
			"type" : "Feature",
			"geometry" : {
				"type" : "Point",
				"coordinates" : [ 20.16028, 51.96528 ]
			},
			"properties" : {
				"LP." : 281,
				"ID" : 251200030,
				"Nazwa" : "SKIERNIEWICE",
				"Województwo" : "łódzkie",
				"Powiat" : "powiat Skierniewice"
			}
		},
		{
			"type" : "Feature",
			"geometry" : {
				"type" : "Point",
				"coordinates" : [ 20.95083, 51.65722 ]
			},
			"properties" : {
				"LP." : 282,
				"ID" : 251200080,
				"Nazwa" : "BIAŁOBRZEGI",
				"Województwo" : "mazowieckie",
				"Powiat" : "powiat białobrzeski"
			}
		},
		{
			"type" : "Feature",
			"geometry" : {
				"type" : "Point",
				"coordinates" : [ 20.23444, 51.37889 ]
			},
			"properties" : {
				"LP." : 283,
				"ID" : 251200130,
				"Nazwa" : "OPOCZNO",
				"Województwo" : "łódzkie",
				"Powiat" : "powiat opoczyński"
			}
		},
		{
			"type" : "Feature",
			"geometry" : {
				"type" : "Point",
				"coordinates" : [ 20.66583, 51.33917 ]
			},
			"properties" : {
				"LP." : 284,
				"ID" : 251200140,
				"Nazwa" : "RUSZKOWICE",
				"Województwo" : "mazowieckie",
				"Powiat" : "powiat przysuski"
			}
		},
		{
			"type" : "Feature",
			"geometry" : {
				"type" : "Point",
				"coordinates" : [ 21.96139, 49.71667 ]
			},
			"properties" : {
				"LP." : 285,
				"ID" : 249210160,
				"Nazwa" : "ORZECHÓWKA",
				"Województwo" : "podkarpackie",
				"Powiat" : "powiat brzozowski"
			}
		},
		{
			"type" : "Feature",
			"geometry" : {
				"type" : "Point",
				"coordinates" : [ 21.34556, 49.55861 ]
			},
			"properties" : {
				"LP." : 286,
				"ID" : 249210170,
				"Nazwa" : "BARTNE",
				"Województwo" : "małopolskie",
				"Powiat" : "powiat gorlicki"
			}
		},
		{
			"type" : "Feature",
			"geometry" : {
				"type" : "Point",
				"coordinates" : [ 21.48944, 49.51583 ]
			},
			"properties" : {
				"LP." : 287,
				"ID" : 249210180,
				"Nazwa" : "KREMPNA",
				"Województwo" : "podkarpackie",
				"Powiat" : "powiat jasielski"
			}
		},
		{
			"type" : "Feature",
			"geometry" : {
				"type" : "Point",
				"coordinates" : [ 21.90722, 49.49 ]
			},
			"properties" : {
				"LP." : 288,
				"ID" : 249210210,
				"Nazwa" : "PUŁAWY DOLNE",
				"Województwo" : "podkarpackie",
				"Powiat" : "powiat krośnieński"
			}
		},
		{
			"type" : "Feature",
			"geometry" : {
				"type" : "Point",
				"coordinates" : [ 21.42083, 49.45389 ]
			},
			"properties" : {
				"LP." : 289,
				"ID" : 249210220,
				"Nazwa" : "WYSZOWADKA",
				"Województwo" : "podkarpackie",
				"Powiat" : "powiat jasielski"
			}
		},
		{
			"type" : "Feature",
			"geometry" : {
				"type" : "Point",
				"coordinates" : [ 21.1725, 49.43806 ]
			},
			"properties" : {
				"LP." : 290,
				"ID" : 249210230,
				"Nazwa" : "WYSOWA",
				"Województwo" : "małopolskie",
				"Powiat" : "powiat gorlicki"
			}
		},
		{
			"type" : "Feature",
			"geometry" : {
				"type" : "Point",
				"coordinates" : [ 21.68472, 49.43111 ]
			},
			"properties" : {
				"LP." : 291,
				"ID" : 249210240,
				"Nazwa" : "BARWINEK",
				"Województwo" : "podkarpackie",
				"Powiat" : "powiat krośnieński"
			}
		},
		{
			"type" : "Feature",
			"geometry" : {
				"type" : "Point",
				"coordinates" : [ 21.81, 49.44 ]
			},
			"properties" : {
				"LP." : 292,
				"ID" : 249210250,
				"Nazwa" : "JAŚLISKA",
				"Województwo" : "podkarpackie",
				"Powiat" : "powiat krośnieński"
			}
		},
		{
			"type" : "Feature",
			"geometry" : {
				"type" : "Point",
				"coordinates" : [ 21.00889, 49.39222 ]
			},
			"properties" : {
				"LP." : 293,
				"ID" : 249210260,
				"Nazwa" : "TYLICZ",
				"Województwo" : "małopolskie",
				"Powiat" : "powiat nowosądecki"
			}
		},
		{
			"type" : "Feature",
			"geometry" : {
				"type" : "Point",
				"coordinates" : [ 21.99917, 49.37861 ]
			},
			"properties" : {
				"LP." : 294,
				"ID" : 249210270,
				"Nazwa" : "WISŁOK WIELKI",
				"Województwo" : "podkarpackie",
				"Powiat" : "powiat sanocki"
			}
		},
		{
			"type" : "Feature",
			"geometry" : {
				"type" : "Point",
				"coordinates" : [ 22.40722, 49.98528 ]
			},
			"properties" : {
				"LP." : 295,
				"ID" : 249220010,
				"Nazwa" : "KAŃCZUGA",
				"Województwo" : "podkarpackie",
				"Powiat" : "powiat przeworski"
			}
		},
		{
			"type" : "Feature",
			"geometry" : {
				"type" : "Point",
				"coordinates" : [ 22.235, 49.83528 ]
			},
			"properties" : {
				"LP." : 296,
				"ID" : 249220040,
				"Nazwa" : "DYNÓW",
				"Województwo" : "podkarpackie",
				"Powiat" : "powiat rzeszowski"
			}
		},
		{
			"type" : "Feature",
			"geometry" : {
				"type" : "Point",
				"coordinates" : [ 22.48111, 49.68722 ]
			},
			"properties" : {
				"LP." : 297,
				"ID" : 249220060,
				"Nazwa" : "BIRCZA",
				"Województwo" : "podkarpackie",
				"Powiat" : "powiat przemyski"
			}
		},
		{
			"type" : "Feature",
			"geometry" : {
				"type" : "Point",
				"coordinates" : [ 22.64, 49.65444 ]
			},
			"properties" : {
				"LP." : 298,
				"ID" : 249220070,
				"Nazwa" : "RYBOTYCZE",
				"Województwo" : "podkarpackie",
				"Powiat" : "powiat przemyski"
			}
		},
		{
			"type" : "Feature",
			"geometry" : {
				"type" : "Point",
				"coordinates" : [ 22.18528, 49.58472 ]
			},
			"properties" : {
				"LP." : 299,
				"ID" : 249220080,
				"Nazwa" : "SANOK-TREPCZA",
				"Województwo" : "podkarpackie",
				"Powiat" : "powiat sanocki"
			}
		},
		{
			"type" : "Feature",
			"geometry" : {
				"type" : "Point",
				"coordinates" : [ 22.02528, 49.50778 ]
			},
			"properties" : {
				"LP." : 300,
				"ID" : 249220110,
				"Nazwa" : "NOWOTANIEC",
				"Województwo" : "podkarpackie",
				"Powiat" : "powiat sanocki"
			}
		},
		{
			"type" : "Feature",
			"geometry" : {
				"type" : "Point",
				"coordinates" : [ 22.54778, 49.50722 ]
			},
			"properties" : {
				"LP." : 301,
				"ID" : 249220120,
				"Nazwa" : "LESZCZOWATE",
				"Województwo" : "podkarpackie",
				"Powiat" : "powiat bieszczadzki"
			}
		},
		{
			"type" : "Feature",
			"geometry" : {
				"type" : "Point",
				"coordinates" : [ 22.46833, 49.4 ]
			},